店名,ジャンル,住所,営業時間,ホームページ,オープン日,公式アカウント,address,緯度,経度
なかたに亭,ケーキ、マカロン、チョコレート,大阪府大阪市天王寺区上本町6-6-27 中川ビル 1F ,営業時間  ［お持ち帰り］10:00～18:00［カフェ］12:00～17:30  日曜営業  定休日  月曜日、第1第3火曜  営業時間・定休日は変更となる場合がございますので、ご来店前に店舗にご確認ください。,http://www.nakatanitei.com,1987年4月13日,,大阪府大阪市天王寺区上本町6-6-27,34.664347,135.519711
レ・グーテ（Les gouters）,ケーキ、マカロン、チョコレート,大阪府大阪市西区京町堀1-14-28 UTSUBO+2 1F ,営業時間  12:00～18:00  日曜営業  定休日  月曜・火曜  営業時間・定休日は変更となる場合がございますので、ご来店前に店舗にご確認ください。,http://les-gouters.com/,2010年9月,https://www.instagram.com/les_gouters/,大阪府大阪市西区京町堀1-14-28,34.686215,135.493676
エクチュア からほり「蔵」本店,チョコレート、カフェ、サンドイッチ,大阪府大阪市中央区谷町6-17-43 練 ,営業時間  [月・火・木・金・土・日]喫茶　11:00～20:00（L.O.19:30）販売　11:00〜20:00営業時間が異なる場合がございます。必ず弊社サイト、弊社SNS等でお調べ頂くか、直接お電話下さい。  日曜営業  定休日  水曜,http://www.ek-chuah.co.jp/,2003年,https://www.facebook.com/EkChuah1986/  https://www.instagram.com/ekchuahs/,大阪府大阪市中央区谷町6-17-43,34.675163,135.512671
ショコラティエ パレ ド オール 大阪（CHOCOLATIER PALET D'OR）,チョコレート、カフェ、ケーキ,大阪府大阪市北区梅田2-2-22 ハービスPLAZA ENT 4F ,営業時間  11:00～20:00  日曜営業  定休日  不定休（ハービスPLAZA ENTに準ずる）  営業時間・定休日は変更となる場合がございますので、ご来店前に店舗にご確認ください。,,,,大阪府大阪市北区梅田2-2-22,34.699668,135.494703
カカオサンパカ 大丸梅田店,カフェ、チョコレート、パフェ,大阪府大阪市北区梅田3-1-1 大丸梅田店 7F ,営業時間  10:00～20:00(L.O.19:00)  日曜営業  定休日  大丸梅田に準ずる,,,,大阪府大阪市北区梅田3-1-1,34.703075,135.495271
パティスリー ショコラトリー オーディネール,ケーキ、チョコレート、カフェ・喫茶（その他）,大阪府大阪市西区南堀江2-4-16 ファヴール南堀江 1F ,営業時間  11:00～20:00  日曜営業  定休日  木曜日(水曜日に臨時休業することもあり)　Facebookで要確認  営業時間・定休日は変更となる場合がございますので、ご来店前に店舗にご確認ください。,https://patisserieordinaire.wixsite.com/ordinaire,2013年12月7日,https://www.facebook.com/p.ordinaire  https://www.instagram.com/p.ordinaire/,大阪府大阪市西区南堀江2-4-16,34.671076,135.491884
レ・プティット・パピヨット（Les Petites Papillotes）,チョコレート、カフェ、ケーキ,大阪府大阪市西区京町掘1-12-24 OH MILLS京町堀 1F ,営業時間  [水～金]11:00～20:00(イートイン19:00まで：Ｌ.O18:30)[土・日・祝]11:00～19:00(Ｌ.O18:30)  日曜営業  定休日  月・火,,,,大阪府大阪市西区京町掘1-12-24,34.687232,135.494294
パティスリー アクイユ（patisserie accueil）,ケーキ、チョコレート、カフェ・喫茶（その他）,大阪府大阪市西区北堀江1-17-18 102 ,営業時間  [水～月]10:00～19:00  日曜営業  定休日  火曜日＋不定休  営業時間・定休日は変更となる場合がございますので、ご来店前に店舗にご確認ください。,https://patisserie-accueil.com/,2014年6月13日,https://www.facebook.com/patisserieaccueil2014  https://www.instagram.com/accueil2014accueil/,大阪府大阪市西区北堀江1-17-18,34.674475,135.494467
ジョエル（joel）,ケーキ、チョコレート、洋菓子（その他）,大阪府大阪市中央区北浜4-3-4 淀屋橋odona １Ｆ ,営業時間  [月～金]　11：00～20:00　喫茶13:00〜LO18:00[土祝]11:00～20:00喫茶11:00 〜LO17:00  定休日  日曜日,,,,大阪府大阪市中央区北浜4-3-4,34.6913,135.500226
ラフカ（LAFCA）,ケーキ、チョコレート,大阪府大阪市北区同心2-1-31 エルコンテント 1F ,営業時間  11:00～20:00（売り切れ次第終了）  日曜営業  定休日  月火+不定休  営業時間・定休日は変更となる場合がございますので、ご来店前に店舗にご確認ください。,https://lafca.shop/,2013年11月22日,https://www.facebook.com/LAFCA-1431447003738411/ https://www.instagram.com/patisserie_lafca/,大阪府大阪市北区同心2-1-31,34.701758,135.517786
ザ・リッツ・カールトン・グルメショップ,ケーキ、パン、チョコレート,大阪府大阪市北区梅田2-5-25 ザ・リッツ・カールトン大阪 1F ,営業時間  平日　11:00 a.m. ～ 6:00 p.m.土・日・祝日　10:00 a.m. ～ 7:00 p.m.  日曜営業  定休日  無休  営業時間・定休日は変更となる場合がございますので、ご来店前に店舗にご確認ください。,,,,大阪府大阪市北区梅田2-5-25,34.69796,135.491921
カカオティエ ゴカン 高麗橋本店（Cacaotier Gokan）,チョコレート、ケーキ、カフェ,大阪府大阪市中央区高麗橋2-6-9 1F ,営業時間  10:00～19:00(L.O.18:00)  日曜営業  定休日  不定休  営業時間・定休日は変更となる場合がございますので、ご来店前に店舗にご確認ください。,http://cacaotier-gokan.co.jp,2016年2月1日,https://www.facebook.com/Cacaotier-Gokan-182898058845958/  https://www.instagram.com/cacaotiergokan/,大阪府大阪市中央区高麗橋2-6-9,34.68966,135.504259
やまもと菓子店（YAMAMOTO KASHITEN）,ケーキ、チョコレート,大阪府大阪市西区新町1-21-3 小林ビル 1F ,営業時間  不定です。だいたい14時半～15時頃までには開店されています。最近は15時頃のことが多いです。(2016年12月現在)※完売次第閉店  定休日  日曜・月曜。急遽臨時休業されることもあります。  営業時間・定休日は変更となる場合がございますので、ご来店前に店舗にご確認ください。,,2011年10月,https://twitter.com/yamamotokasiten  https://www.instagram.com/yamamotokasiten/,大阪府大阪市西区新町1-21-3,34.676844,135.495112
ティカール　バイ　カカオマス（TIKAL by Cacao en Masse）,チョコレート、ケーキ,大阪府大阪市中央区伏見町3-3-3 芝川ビル　１Ｆ ,営業時間  ［月～金］11:30～19:00［土・日・祝］11:30～18:00  日曜営業  定休日  祝日の月曜日  営業時間・定休日は変更となる場合がございますので、ご来店前に店舗にご確認ください。,,2008年6月20日,,大阪府大阪市中央区伏見町3-3-3,34.688996,135.501891
レクラ,チョコレート、ケーキ,大阪府大阪市北区中之島5-3-68 リーガロイヤルホテル 1F ,営業時間  ［秋冬期間 ～3月31日］　11：00～19：00［春夏期間 4月1日～］　11：30～18：30※季節により営業時間が異なります。  日曜営業  定休日  年中無休,,,,大阪府大阪市北区中之島5-3-68,34.690167,135.48734
パティスリー ルシェルシェ（Patisserie Rechercher）,ケーキ、チョコレート,大阪府大阪市西区南堀江3-9-28  このお店は「大阪市西区南堀江4-5」から移転しています。  ※移転前の情報は最新のものとは異なります。  移転前の店舗情報を見る,営業時間  10:00～19:00  定休日  火曜日  営業時間・定休日は変更となる場合がございますので、ご来店前に店舗にご確認ください。,,,,大阪府大阪市西区南堀江3-9-28,34.672018,135.489075
パティスリー シロ・デラブル（Patisserie de ESAKA SIROP D'ERABLE）,ケーキ、チョコレート,大阪府吹田市江の木町5-3 レーベンハウス江坂 1F ,営業時間  10:00～19:00  日曜営業  定休日  不定休  営業時間・定休日は変更となる場合がございますので、ご来店前に店舗にご確認ください。,http://www.s-derable.com/,2008年6月10日,https://www.instagram.com/siropderable_esaka/,大阪府吹田市江の木町5-3,34.756334,135.494913
ショコラトリー・パティスリー ソリリテ（CHOCOLATERIE PATISSERIE SOLILITE）,チョコレート、ケーキ,大阪府大阪市西区江戸堀2-2-5,営業時間  10:00～19:00 日曜営業  定休日  火曜日、他に不定休あり  営業時間・定休日は変更となる場合がございますので、ご来店前に店舗にご確認ください。,http://solilite.site,2015年11月17日,https://www.facebook.com/solilite/  https://www.instagram.com/chocolateriesolilite/,大阪府大阪市西区江戸堀2-2-5,34.687537,135.491683
ブルガリ イル・カフェ 阪急うめだ本店（BVLGARI IL CAFE）,カフェ、チョコレート、イタリアン,大阪府大阪市北区角田町8-7 阪急うめだ本店 5F ,営業時間  [日曜～木曜]10:00～20:00[金曜、土曜]10:00～21:00（時期によって異なる場合がございます）  日曜営業  定休日  不定休(阪急うめだ本店に準ずる)  営業時間・定休日は変更となる場合がございますので、ご来店前に店舗にご確認ください。,,,,大阪府大阪市北区角田町8-7,34.70305,135.498352
グラモウディーズ 梅田阪急店（GLAMOURDISE）,チョコレート、ケーキ、マカロン,大阪府大阪市北区角田町8-7 阪急うめだ本店 1F ,営業時間  [月・火・日]10:00～20:00[水～土]10:00～21:00  日曜営業  定休日  不定休（阪急うめだ本店に準ずる）  営業時間・定休日は変更となる場合がございますので、ご来店前に店舗にご確認ください。,http://glamourdise.jp/,2009年9月3日,,大阪府大阪市北区角田町8-7,34.70305,135.498352
パティスリー SATSUKI（サツキ【旧店名】スゥイートショップ）,ケーキ、パン、チョコレート,大阪府大阪市中央区城見1-4-1 ホテルニューオータニ大阪 ,営業時間  10:00～20:00  日曜営業  定休日  無し,,,,大阪府大阪市中央区城見1-4-1,34.690871,135.533009
ポアール・ド・ノール 北新地店（POIRE du nord）,ケーキ、チョコレート,大阪府大阪市北区曽根崎新地1-2-22 北リンデンビル 1F ,営業時間  12:00～23:00  定休日  日曜日・祝日 ※クリスマス等イベント時変更あり(公式サイトにて告知),https://poire.co.jp/,,https://www.facebook.com/poire.du.nord/  https://www.instagram.com/poire.jp/,大阪府大阪市北区曽根崎新地1-2-22,34.700219,135.501036
バトンドール 阪急 うめだ本店（Baton dor）,チョコレート,大阪府大阪市北区角田町8-7 阪急うめだ本店 B1F ,営業時間  [日～木]10:00～20:00[金・土]10:00～21:00  日曜営業  定休日  不定休 (阪急うめだ本店に準ずる)  営業時間・定休日は変更となる場合がございますので、ご来店前に店舗にご確認ください。,http://www.glico.co.jp/batondor/,2012年10月25日,,大阪府大阪市北区角田町8-7,34.70305,135.498352
菓子工房 エピナール,チョコレート、ケーキ,大阪府箕面市箕面6丁目6-8,営業時間  [木～火・祝]9:30～20:00  日曜営業  定休日  水曜日(祝日の場合営業) 、不定休(SNSにて告知)  営業時間・定休日は変更となる場合がございますので、ご来店前に店舗にご確認ください。,http://www.m-epi.com/,1982年,https://www.facebook.com/菓子工房エピナール-228501047166091/  https://www.instagram.com/epinard.minoo/,大阪府箕面市箕面6丁目6-8,34.832497,135.469015
ガトーフェスタ ハラダ 阪神百貨店 梅田本店（GATEAU FESTA HARADA）,チョコレート,大阪府大阪市北区梅田1-13-13 阪神百貨店梅田本店 B1F ,営業時間  [日～火・祝]10:00～20:00[水～土]10:00～21:00  日曜営業  定休日  不定休 (阪神百貨店梅田本店に準ずる)  営業時間・定休日は変更となる場合がございますので、ご来店前に店舗にご確認ください。,http://www.gateaufesta-harada.com/,2009年8月26日,,大阪府大阪市北区梅田1-13-13,34.701132,135.499039
ラ・メゾン・デュ・ショコラ 梅田阪急店,ケーキ、チョコレート,大阪府大阪市北区角田町8-7 阪急うめだ本店 B1F ,営業時間  10:00～21:00  日曜営業  定休日  不定休(阪急うめだ本店に準ずる)  営業時間・定休日は変更となる場合がございますので、ご来店前に店舗にご確認ください。,https://www.lamaisonduchocolat.co.jp/ja_jp/,2012年10月25日,https://www.facebook.com/LaMaisonduChocolatJapon/  https://www.instagram.com/lamaisonduchocolat_jp/,大阪府大阪市北区角田町8-7,34.70305,135.498352
フロランタン,パフェ、カフェ、チョコレート,大阪府大阪市北区曽根崎新地1-3-19 北新地ビルディング 4F ,営業時間  ［火・水・木・金］19:00～22:30 (21:30L.O)［土］15:00～18:00 (17:00L.O)19:00～22:30 (21:30L.O)  定休日  ［日・月］,,,,大阪府大阪市北区曽根崎新地1-3-19,34.697753,135.495789
ヴェンキ ディアモール大阪店（Venchi）,チョコレート、アイスクリーム,大阪府大阪市北区梅田1 大阪駅前ダイヤモンド地下街2号 G112区画 ,営業時間  10:00～21:00  日曜営業  定休日  施設に準ずる  営業時間・定休日は変更となる場合がございますので、ご来店前に店舗にご確認ください。,https://venchi.co.jp/,2021年7月16日,https://www.facebook.com/VenchiJP  https://twitter.com/VenchiJP  https://www.instagram.com/venchi_jp,大阪府大阪市北区梅田1-1,34.698708,135.499563
ANAクラウンプラザホテル大阪 DELICA SHOP（デリカショップ）,ケーキ、チョコレート、パン,大阪府大阪市北区堂島浜1-3-1 ANAクラウンプラザホテル大阪 1F ,営業時間  11:00～21:00  日曜営業  定休日  無休,http://jp.anacrowneplaza-osaka.jp/restaurant/delica.html,,,大阪府大阪市北区堂島浜1-3-1,34.695561,135.498311
プチプランス 上新庄店（Petit Prince）,ケーキ、チョコレート,大阪府大阪市東淀川区瑞光1-11-4,営業時間  [月～土] ※第3水曜日以外10:00～21:00[日・祝]10:00～20:00  日曜営業  定休日  第３水曜日（８月・１２月は無休）  営業時間・定休日は変更となる場合がございますので、ご来店前に店舗にご確認ください。,http://www.petit-prince.co.jp/,,https://www.facebook.com/プチプランス-285222344997753/  https://www.instagram.com/petitprince.co.jp/,大阪府大阪市東淀川区瑞光1-11-4,34.748617,135.533388
エクチュア 難波高島屋店（Ek Chuah）,チョコレート,大阪府大阪市中央区難波5-1-5 大阪タカシマヤ B1F ,営業時間  10:00～20:00  日曜営業  定休日  不定休（高島屋に準ずる）  営業時間・定休日は変更となる場合がございますので、ご来店前に店舗にご確認ください。,http://www.ek-chuah.co.jp/,1986年,,大阪府大阪市中央区難波5-1-5,34.664609,135.501263
ケントハウス（本店）,ケーキ、チョコレート、カフェ,大阪府大阪市東成区大今里南1-21-19,営業時間  10:00～21:00（カフェフードは20：:30でオーダーストップとなります。）  日曜営業  定休日  不定休,,,,大阪府大阪市東成区大今里南1-21-19,34.666498,135.543004
サロンドロワイヤル 三番街店（Salon de Royal）,チョコレート,大阪府大阪市北区芝田1-1-3 阪急三番街 南館B2F ,営業時間  10:00～21:00  日曜営業  定休日  無休(阪急三番街に準ず)  営業時間・定休日は変更となる場合がございますので、ご来店前に店舗にご確認ください。,https://www.s-royal.com/,2010年1月20日,https://www.facebook.com/salon.de.royal/,大阪府大阪市北区芝田1-1-3,34.706018,135.498238
ル カフェ ヴィー（LE CAFE V）,カフェ、バー、チョコレート,大阪府大阪市中央区心斎橋筋2-8-16 ルイ･ヴィトン メゾン 大阪御堂筋 7F ,営業時間  11:00～22:00(L.O.21:00)  日曜営業  営業時間・定休日は変更となる場合がございますので、ご来店前に店舗にご確認ください。,,,,大阪府大阪市中央区心斎橋筋2-8-16,34.671527,135.500594
プレヴェール,ケーキ、チョコレート,大阪府大阪市鶴見区鶴見4-10-35,営業時間  10:00～23:00  日曜営業  定休日  木  営業時間・定休日は変更となる場合がございますので、ご来店前に店舗にご確認ください。,http://prevert.jp/,,,大阪府大阪市鶴見区鶴見4-10-35,34.702357,135.561045
ジャンルプラン 鶴見花博通店（JAN RUPURAN）,ケーキ、チョコレート,大阪府大阪市鶴見区鶴見6-6-44,営業時間  9:00～21:00  日曜営業  定休日  不定休  営業時間・定休日は変更となる場合がございますので、ご来店前に店舗にご確認ください。,http://janrupuran.com/,2009年10月16日,https://www.facebook.com/jr.chef.nikki  https://www.instagram.com/janrupuran/,大阪府大阪市鶴見区鶴見6-6-44,34.707565,135.565382
ヴィタメール 阪神梅田本店（WITTAMER）,ケーキ、チョコレート,大阪府大阪市北区梅田1-13-13 阪神百貨店梅田本店 B1F ,営業時間  10:00～20:00  日曜営業  定休日  不定休（阪神百貨店に準ずる）  営業時間・定休日は変更となる場合がございますので、ご来店前に店舗にご確認ください。,http://www.wittamer.jp/,1990年,,大阪府大阪市北区梅田1-13-13,34.701132,135.499039
バトンドール 高島屋 大阪店（Baton dor）,チョコレート,大阪府大阪市中央区難波5-1-5 大阪タカシマヤ B1F ,営業時間  10:00～20:00  日曜営業  定休日  無休 (大阪タカシマヤに準ずる)  営業時間・定休日は変更となる場合がございますので、ご来店前に店舗にご確認ください。,http://www.glico.co.jp/batondor/,2012年10月24日,,大阪府大阪市中央区難波5-1-5,34.664609,135.501263
ザ・リッツ・カールトン・チョコレートブティック（The Ritz-Carlton Chocolate Boutique）,チョコレート,大阪府大阪市北区梅田2-5-25 ザ・リッツ・カールトン大阪 1F ,営業時間  8:00～21:30  日曜営業  定休日  無休  営業時間・定休日は変更となる場合がございますので、ご来店前に店舗にご確認ください。,http://www.ritz-carlton.co.jp/,,,大阪府大阪市北区梅田2-5-25,34.69796,135.491921
チョコレート ブランチ（chocolate branch）,チョコレート、ソフトクリーム,大阪府豊中市原田中1-17-5,営業時間  11:00～19:00  日曜営業  定休日  水曜日  営業時間・定休日は変更となる場合がございますので、ご来店前に店舗にご確認ください。,http://www.chocolate-branch.com/,2011年4月,,大阪府豊中市原田中1-17-5,34.768677,135.456961
メルカリストランティーノ ルクア大阪店,イタリアン、チョコレート、ワインバー,大阪府大阪市北区梅田3-1-3 ルクア大阪B2F LUCUA FOOD HALL ,営業時間  11:00～23:00ドリンクのラストオーダー22:30お食事のラストオーダー22:00  日曜営業  定休日  不定休日　※ルクア大阪に準ずる,,,,大阪府大阪市北区梅田3-1-3,34.702887,135.495324
ファミーユ,ケーキ、チョコレート,大阪府東大阪市下小阪5-4-11,営業時間  10:30～20:30  日曜営業  定休日  月曜日  営業時間・定休日は変更となる場合がございますので、ご来店前に店舗にご確認ください。,http://famille-chocolat.sakura.ne.jp/,2004年,,大阪府東大阪市下小阪5-4-11,34.663188,135.590837
パティスリー・モーン 北信太店（PATISSERIE MOHN）,ケーキ、チョコレート,大阪府和泉市太町61-27,営業時間  [木～火]9:00～19:30  日曜営業  定休日  水曜日、不定休（SNSにて告知）  営業時間・定休日は変更となる場合がございますので、ご来店前に店舗にご確認ください。,http://patisserie-mohn.com/,,https://www.facebook.com/Patisserie-Mohnパティスリーモーン-710265732321804/  https://www.instagram.com/patisserie_mohn/,大阪府和泉市太町61-27,34.510101,135.441623
グロス・オーフェン,ケーキ、チョコレート,大阪府箕面市桜井1-1-1,営業時間  10:00～19:00  日曜営業  定休日  水曜日、不定休(公式サイト・SNSにて告知)  営業時間・定休日は変更となる場合がございますので、ご来店前に店舗にご確認ください。,https://grossofen.com/,1981年,https://www.instagram.com/grossofen/,大阪府箕面市桜井1-1-1,34.817241,135.460272
キャギ・ド・レーヴ（Cagi de reves）,チョコレート,大阪府大阪市中央区神崎町4-12 ＵＨＡビル　１Ｆ ,営業時間  [月～金]11:00～20:00[土・日・祝]11:00～17:00  定休日  不定休,http://www.cagidereves.jp/,,,大阪府大阪市中央区神崎町4-12,34.67707,135.512344
ザ・テイラー（THE TAILOR）,チョコレート,大阪府大阪市北区角田町8-7 阪急うめだ本店 B1F ,営業時間  ［月・火・水・木・日］10:00～20:00［金・土］10:00～21:00  日曜営業  定休日  不定休  営業時間・定休日は変更となる場合がございますので、ご来店前に店舗にご確認ください。,http://www.thetailor.jp/,2019年11月13日,,大阪府大阪市北区角田町8-7,34.70305,135.498352
シュガーバターの木 阪急うめだ店,チョコレート、スイーツ（その他）,大阪府大阪市北区角田町8-7 阪急うめだ本店 B1F ,営業時間  [日～火]10:00～20:00[水～土]10:00～21:00  日曜営業  定休日  無休 ※阪急うめだ本店に準ずる  営業時間・定休日は変更となる場合がございますので、ご来店前に店舗にご確認ください。,https://www.sugarbuttertree.jp/,2011年5月25日,https://twitter.com/gin_no_budo,大阪府大阪市北区角田町8-7,34.70305,135.498352
アンリ・シャルパンティエ 梅田阪急店（HENRI CHARPENTIER）,ケーキ、チョコレート,大阪府大阪市北区角田町8-7 阪急うめだ本店 B1F ,営業時間  [月・火・日]10:00～20:00[水～土]10:00～21:00  日曜営業  定休日  不定休（阪急梅田本店に準ずる）  営業時間・定休日は変更となる場合がございますので、ご来店前に店舗にご確認ください。,http://www.henri-charpentier.com/,,,大阪府大阪市北区角田町8-7,34.70305,135.498352
グレーヌ・ド・ポアール,ケーキ、チョコレート,大阪府大阪市西成区南津守7-13-10,営業時間  10:00～18:00デザートサロン11:00～18:00（L.O.17:00）  日曜営業  定休日  不定休,,,,大阪府大阪市西成区南津守7-13-10,34.623077,135.484226
パティスリーMASA（マサ）,ケーキ、チョコレート,大阪府大阪市西区千代崎2-25-1,営業時間  １０：００～２０：００  日曜営業  定休日  水曜日  営業時間・定休日は変更となる場合がございますので、ご来店前に店舗にご確認ください。,,,,大阪府大阪市西区千代崎2-25-1,34.673053,135.476721
リスボン 都島店（LISBON）,ケーキ、チョコレート,大阪府大阪市都島区都島北通1-1-5,営業時間  9:00～22:00  日曜営業  定休日  不定休(SNSにて告知)  営業時間・定休日は変更となる場合がございますので、ご来店前に店舗にご確認ください。,https://www.lisbon1983.net/,2010年10月,https://www.facebook.com/リスボン都島-330971380760876/  https://www.instagram.com/lisbonmiyakojima/,大阪府大阪市都島区都島北通1-1-5,34.709513,135.526709
ショコラトリー ココ（chocolaterie COCO）,チョコレート,大阪府大阪市中央区南久宝寺町1-5-15 COZY南久宝寺 1F ,営業時間  [水～日]11:00～19:00（売り切れ次第終了）  日曜営業  定休日  月曜日、火曜日、不定休（SNSにて告知）  営業時間・定休日は変更となる場合がございますので、ご来店前に店舗にご確認ください。,http://instagram.com/chocolaterie_coco,2015年11月5日,https://www.facebook.com/Chocolaterie-COCO-1128397110521789/  https://www.instagram.com/chocolaterie_coco/,大阪府大阪市中央区南久宝寺町1-5-15,34.679425,135.508526
マリベル・ザ・ラウンジ,チョコレート,大阪府大阪市中央区心斎橋筋1-7-1 大丸心斎橋店 ,営業時間  10:00〜20:30  日曜営業  定休日  大丸心斎橋に準ずる  営業時間・定休日は変更となる場合がございますので、ご来店前に店舗にご確認ください。,,,,大阪府大阪市中央区心斎橋筋1-7-1,34.67385,135.500963
ショコラトリー エクチュア もりのみやキューズモールＢＡＳＥ店（La chocolaterie de EkChuah）,チョコレート、ケーキ、ソフトクリーム,大阪府大阪市中央区森ノ宮中央2-1-70 もりのみやキューズモールBASE 1F ,営業時間  10:00～21:00  日曜営業  定休日  不定休(もりのみやキューズモールBASEに準ずる)  営業時間・定休日は変更となる場合がございますので、ご来店前に店舗にご確認ください。,http://www.ek-chuah.co.jp/,2015年4月27日,,大阪府大阪市中央区森ノ宮中央2-1-70,34.680891,135.530651
ブルガリ イル・チョコラート 大阪高島屋店（BVLGARI IL CIOCCOLATO）,チョコレート,大阪府大阪市中央区難波5-1-5 高島屋大阪店 B1F ,営業時間  10:00～20:00  定休日  不定休(高島屋大阪店に準ずる)  営業時間・定休日は変更となる場合がございますので、ご来店前に店舗にご確認ください。,,,,大阪府大阪市中央区難波5-1-5,34.664609,135.501263
キットカット ショコラトリー 伊丹空港店,カフェ、チョコレート、ケーキ,大阪府豊中市蛍池3-555 伊丹空港中央ブロック 2F ,営業時間  10:00～21:00※当面の間19:00まで  日曜営業  定休日  年中無休（伊丹空港の休業日に準ずる）  営業時間・定休日は変更となる場合がございますので、ご来店前に店舗にご確認ください。,https://nestle.jp/brand/kit/chocolatory/,2018年4月18日,https://www.facebook.com/kitkat.japan/  https://twitter.com/kitkatjapan  https://www.instagram.com/kitkat_chocolatory_official_jp,大阪府豊中市蛍池3-555,34.789834,135.442205
ハニーデュークス,チョコレート,大阪府大阪市此花区桜島2-1-33 ユニバーサルスタジオジャパン ,営業時間  不定  定休日  不定休  営業時間・定休日は変更となる場合がございますので、ご来店前に店舗にご確認ください。,,2014年6月,,大阪府大阪市此花区桜島2-1-33,34.667266,135.433643
お菓子の工房　カランリーヌ,ケーキ、チョコレート,大阪府東大阪市池島町3-3-47 パルエミール１Ｆ ,営業時間  販売 10:00～20:00喫茶 10:00～19:00  日曜営業  定休日  水曜日  営業時間・定休日は変更となる場合がございますので、ご来店前に店舗にご確認ください。,http://www.calinrine.com,1998年8月27日,https://www.facebook.com/youko.tango  https://www.instagram.com/calinrine.y/,大阪府東大阪市池島町3-3-47,34.655295,135.630222
ル・ショコラ・アラン・デュカス 大丸心斎橋（LE CHOCOLAT ALAIN DUCASSE）,チョコレート、カフェ、スイーツ（その他）,大阪府大阪市中央区心斎橋筋1-7-1 大丸心斎橋店 B1F ,営業時間  10:00 - 20:00 (19:30L.O.)  日曜営業  定休日  大丸心斎橋店に準ずる  営業時間・定休日は変更となる場合がございますので、ご来店前に店舗にご確認ください。,,,,大阪府大阪市中央区心斎橋筋1-7-1,34.67385,135.500963
ミナモアレ（minamoalley）,チョコレート,大阪府大阪市中央区道頓堀1-9-1 道頓堀ベルスード 1F ,営業時間  11:00～21:00  日曜営業  定休日  不定休(道頓堀ベルスードに準ずる)  営業時間・定休日は変更となる場合がございますので、ご来店前に店舗にご確認ください。,http://minamoalley.co.jp/,2013年10月2日,,大阪府大阪市中央区道頓堀1-9-1,34.668534,135.501125
ホテルショコラ NU茶屋町プラス店（HOTEL Chocolat.）,チョコレート、カフェ,大阪府大阪市北区茶屋町8-26 NU+茶屋町 1F ,営業時間  11:00～20:00(L.O.19:30)  日曜営業  営業時間・定休日は変更となる場合がございますので、ご来店前に店舗にご確認ください。,https://hotelchocolat.co.jp/pages/chayamachi,2021年7月16日,https://www.facebook.com/hotelchocolatjp  https://twitter.com/hotelchocolatjp  https://www.instagram.com/hotelchocolatjp,大阪府大阪市北区茶屋町8-26,34.704834,135.499612
モロゾフ 阪神百貨店梅田本店（Morozoff）,ケーキ、スイーツ（その他）、チョコレート,大阪府大阪市北区梅田1-13-13 阪神百貨店梅田本店 B1F ,営業時間  10:00～20:00  日曜営業  定休日  阪神百貨店定休日に準ずる  営業時間・定休日は変更となる場合がございますので、ご来店前に店舗にご確認ください。,http://www.morozoff.co.jp/,,https://www.facebook.com/morozoff.limited  https://twitter.com/morozoff_sp  https://www.instagram.com/morozoff_sp/,大阪府大阪市北区梅田1-13-13,34.701132,135.499039
ベルアメール うめだ阪急店（BEL AMER）,チョコレート、ケーキ,大阪府大阪市北区角田町8-7 阪急うめだ本店 B1F ,営業時間  [日～火]10:00～20:00[水～土]10:00～21:00  日曜営業  定休日  阪急うめだ本店に準ずる  営業時間・定休日は変更となる場合がございますので、ご来店前に店舗にご確認ください。,http://www.belamer.jp/,2009年9月3日,,大阪府大阪市北区角田町8-7,34.70305,135.498352
お菓子工房　アントレ 本店,ケーキ、スイーツ（その他）、チョコレート,大阪府泉南市樽井3-37-35,営業時間  9:00～20:00カフェLO18:00  日曜営業  定休日  年中無休,https://ja-jp.facebook.com/oisihii.okashi,2000年11月11日,,大阪府泉南市樽井3-37-35,34.36467,135.261289
リンツ ショコラ ブティック クリスタ長堀店,チョコレート,大阪府大阪市中央区南船場3-長堀地下街4,営業時間  [月～土]11:00～21:00[日]11:00～20:30  日曜営業  定休日  クリスタ長堀に準ずる  営業時間・定休日は変更となる場合がございますので、ご来店前に店舗にご確認ください。,https://www.lindt.jp/,2018年5月23日,https://www.facebook.com/LindtJapan  https://twitter.com/LindtJapan  https://www.instagram.com/lindt_chocolate_japan/,大阪府大阪市中央区南船場3-長堀地下街4,34.67509,135.503389
ファヤージュ ショコラ（FEUILLAGE CHOCOLAT）,チョコレート,大阪府大阪市阿倍野区阿倍野筋1-1-43 あべのハルカス 近鉄本店 カス近鉄本店 タワー館 B1F ,営業時間  10:00～20:30  日曜営業  定休日  不定休(あべのハルカス近鉄本店に準ずる)  営業時間・定休日は変更となる場合がございますので、ご来店前に店舗にご確認ください。,http://www.morozoff.co.jp/quality/cms/news/detail/index705.html,2015年11月4日,,大阪府大阪市阿倍野区阿倍野筋1-1-43,34.645952,135.513974
甘泉堂,和菓子、大福、チョコレート,大阪府大阪市西成区花園南1-4-22,営業時間  [月～水・金～日]8：00～19：30[木]8：30～19：00  日曜営業  定休日  年始（1日～3日）のみ,http://www.kashikobo-kansendo.com/,,,大阪府大阪市西成区花園南1-4-22,34.642583,135.497451
ヴィタメール 梅田大丸店（WITTAMER）,ケーキ、チョコレート、カフェ,大阪府大阪市北区梅田3-1-1 大丸梅田店 ,営業時間  [月～木・日] 10:00～20:30 [金・土] 10:00～21:00  日曜営業  定休日  不定休(大丸梅田店に準ずる)  営業時間・定休日は変更となる場合がございますので、ご来店前に店舗にご確認ください。,https://www.wittamer.jp/,2016年3月2日,,大阪府大阪市北区梅田3-1-1,34.703075,135.495271
ゴンチャロフ 大丸心斎橋（Goncharoff）,チョコレート,大阪府大阪市中央区心斎橋筋1-7-1 大丸心斎橋店 B2F ,営業時間  10：00～20：30  日曜営業  営業時間・定休日は変更となる場合がございますので、ご来店前に店舗にご確認ください。,http://www.goncharoff.co.jp/,,,大阪府大阪市中央区心斎橋筋1-7-1,34.67385,135.500963
菓子工房エリオス,ケーキ、チョコレート,大阪府大阪市東住吉区駒川2-4-22,営業時間  9:00～20:00  定休日  月曜日（祝日の場合、営業　翌日休み）  営業時間・定休日は変更となる場合がございますので、ご来店前に店舗にご確認ください。,http://helios-smile.com/,,,大阪府大阪市東住吉区駒川2-4-22,34.629021,135.530366
ヴィタメール 大阪高島屋店（WITTAMER）,ケーキ、チョコレート,大阪府大阪市中央区難波5-1-5 大阪タカシマヤ B1F ,営業時間  10:00～20:00  日曜営業  定休日  不定休（高島屋に準ずる）  営業時間・定休日は変更となる場合がございますので、ご来店前に店舗にご確認ください。,http://www.wittamer.jp/,,,大阪府大阪市中央区難波5-1-5,34.664609,135.501263
クリ ド コック（cri de coq）,チョコレート、ケーキ、カフェ,大阪府箕面市白島3-7-2 LA GARELLIA 1F ,営業時間  10:00～19:30カフェスペースは19:00(L.O)  日曜営業  定休日  水曜日 第一木曜日,,2014年11月29日,https://www.facebook.com/patissirecridecoq/timeline,大阪府箕面市白島3-7-2,34.838831,135.49138
モンロワール 梅田阪急店,チョコレート,大阪府大阪市北区角田町8-7 阪急うめだ本店 B1F ,営業時間  [月・火・日] 10:00～20:00[水～土]10:00～21:00  日曜営業  定休日  不定休(阪急うめだ本店に準ずる)  営業時間・定休日は変更となる場合がございますので、ご来店前に店舗にご確認ください。,https://www.monloire.co.jp/,,,大阪府大阪市北区角田町8-7,34.70305,135.498352
ゴディバ ショコイスト なんばCITY,チョコレート、アイスクリーム,大阪府大阪市中央区難波5-1-60 なんばCITY 1F ,営業時間  10:00～21:30  日曜営業  定休日  なんばCITYに準ずる  営業時間・定休日は変更となる場合がございますので、ご来店前に店舗にご確認ください。,https://www.godiva.co.jp/,2008年12月29日,https://www.facebook.com/GodivaJapan  https://twitter.com/godiva_jpn  https://www.instagram.com/godiva_japan/,大阪府大阪市中央区難波5-1-60,34.66406,135.501469
ビアンクール 大丸心斎橋,チョコレート,大阪府大阪市中央区心斎橋筋1-7-1 大丸心斎橋店 B2F ,営業時間  10:00～20：30  日曜営業  営業時間・定休日は変更となる場合がございますので、ご来店前に店舗にご確認ください。,,,,大阪府大阪市中央区心斎橋筋1-7-1,34.67385,135.500963
キットカット ギフトショップ,チョコレート,大阪府泉佐野市りんくう往来南3-28 りんくうプレミアムアウトレット内 ,営業時間  10:00～20:00  日曜営業  定休日  毎年2月第3木曜日  営業時間・定休日は変更となる場合がございますので、ご来店前に店舗にご確認ください。,,2017年11月23日,,大阪府泉佐野市りんくう往来南3-28,34.406295,135.295885
デメル 阪急梅田本店（DEMEL）,チョコレート,大阪府大阪市北区角田町8-7 阪急うめだ本店 B1F ,営業時間  10:00～20:00  日曜営業  定休日  不定休（阪急に準ずる）  営業時間・定休日は変更となる場合がございますので、ご来店前に店舗にご確認ください。,http://www.demel.co.jp/,,,大阪府大阪市北区角田町8-7,34.70305,135.498352
ゴディバ りんくうプレミアムアウトレット店（GODIVA）,チョコレート、スイーツ（その他）、カフェ,大阪府泉佐野市りんくう往来南3-28 りんくうプレミアムアウトレット ,営業時間  [1月～7月・9月～12月]10:00～20:00[8月]10:00～21:00  日曜営業  定休日  りんくうプレミアムアウトレットに準ずる  営業時間・定休日は変更となる場合がございますので、ご来店前に店舗にご確認ください。,https://www.godiva.co.jp/,,https://www.facebook.com/GodivaJapan  https://twitter.com/godiva_jpn  https://www.instagram.com/godiva_japan/,大阪府泉佐野市りんくう往来南3-28,34.406295,135.295885
GODIVA Chocolatier 阪急梅田本店（ゴディバ ショコラティエ）,チョコレート,大阪府大阪市北区角田町8-7 阪急うめだ本店 B1F ,営業時間  [日～木]10:00～20:00[金・土]10:00～21:00※阪急うめだ本店に準ずる  日曜営業  定休日  不定休（阪急うめだ本店に準ずる）  営業時間・定休日は変更となる場合がございますので、ご来店前に店舗にご確認ください。,https://www.godiva.co.jp/,,https://www.facebook.com/GodivaJapan  https://twitter.com/godiva_jpn  https://www.instagram.com/godiva_japan/,大阪府大阪市北区角田町8-7,34.70305,135.498352
ブラン洋菓子店,ケーキ、チョコレート,大阪府富田林市甲田3丁目9-11 第二常盤ハイツ１Ｆ ,営業時間  10:00～21:00  定休日  なし  営業時間・定休日は変更となる場合がございますので、ご来店前に店舗にご確認ください。,http://www.p-blanc.com/,,,大阪府富田林市甲田3丁目9-11,34.491024,135.590269
QUON CHOCOLATE 北新地店（クオン チョコレート）,チョコレート,大阪府大阪市北区曾根崎新地1-4-10 銀泉桜橋ビル 1F ,営業時間  [月～金]11:00～20:00[土]11:00～17:00  定休日  日曜日、祝日  営業時間・定休日は変更となる場合がございますので、ご来店前に店舗にご確認ください。,https://quon-choco.com/,2020年12月,https://www.facebook.com/quonchocolate  https://www.instagram.com/quonchocolate_,大阪府大阪市北区曾根崎新地1-4-10,34.698007,135.495801
ガトーフェスタ ハラダ あべのハルカス近鉄本店（GATEAU FESTA HARADA）,チョコレート、洋菓子（その他）,大阪府大阪市阿倍野区阿倍野筋1-1-43 あべのハルカス 近鉄本店 タワー館 B1F ,営業時間  10:00～20:30  日曜営業  定休日  不定休 (あべのハルカス近鉄本店に準ずる)  営業時間・定休日は変更となる場合がございますので、ご来店前に店舗にご確認ください。,http://www.gateaufesta-harada.com/,2013年6月13日,,大阪府大阪市阿倍野区阿倍野筋1-1-43,34.645952,135.513974
ヴァルワール（VALOIR）,チョコレート、ケーキ、洋菓子（その他）,大阪府大阪市淀川区西宮原2-6-37,営業時間  [金]12:00～18:30[土･日･祝祭日]11:00～17:00 日曜営業  定休日  月曜日・火曜日・水曜日・木曜日,http://valoir1029.com/,2014年2月,https://www.facebook.com/https://www.facebook.com/valoir1029/,大阪府大阪市淀川区西宮原2-6-37,34.735273,135.489006
袋布向春園 本店（タフコウシュンエン）,日本茶専門店、甘味処、チョコレート,大阪府大阪市城東区今福西5-2-5,営業時間  [月～土]9:00～18:30[日・祝]10:00～18:30  日曜営業  定休日  元日～1月4日  営業時間・定休日は変更となる場合がございますので、ご来店前に店舗にご確認ください。,,,,大阪府大阪市城東区今福西5-2-5,34.704183,135.546576
ショップ ハルカス300（SHOP HARUKAS 300）,和菓子、チョコレート,大阪府大阪市阿倍野区阿倍野筋1-1-43 あべのハルカス 59F ,営業時間  9:00～22:00  日曜営業  定休日  不定休(あべのハルカスに準ずる)  営業時間・定休日は変更となる場合がございますので、ご来店前に店舗にご確認ください。,http://www.abenoharukas-300.jp/observatory/restaurant.html,,,大阪府大阪市阿倍野区阿倍野筋1-1-43,34.645952,135.513974
パティスリー ミヨシ（PÂTISSERIE MIYOSHI ）,ケーキ、洋菓子（その他）、チョコレート,大阪府大阪市都島区毛馬町1-5-15,営業時間  11:00～20:00  日曜営業  定休日  水曜日（+不定休）  営業時間・定休日は変更となる場合がございますので、ご来店前に店舗にご確認ください。,,2019年1月11日,https://www.facebook.com/Pâtisserie-Miyoshi-956363367885945/  https://www.instagram.com/patisserie_miyoshi/,大阪府大阪市都島区毛馬町1-5-15,34.718804,135.521932
リンツ ショコラ ブティック エミル高槻店,チョコレート,大阪府高槻市城北町2-1-18,,,2020年11月20日,,大阪府高槻市城北町2-1-18,34.849056,135.621565
デメル 高島屋大阪店（DEMEL）,チョコレート、ケーキ,大阪府大阪市中央区難波5-1-5 大阪タカシマヤ B1F ,営業時間  10:00～20:00  日曜営業  定休日  不定休（高島屋に準ずる）  営業時間・定休日は変更となる場合がございますので、ご来店前に店舗にご確認ください。,http://www.demel.co.jp/,,,大阪府大阪市中央区難波5-1-5,34.664609,135.501263
アンテノール 阿倍野近鉄店,ケーキ、チョコレート,大阪府大阪市阿倍野区阿倍野筋1-1-43 あべのハルカス近鉄本店 ,営業時間  [日～木]10:00～20:00[金・土]10:00～20:30  日曜営業  定休日  不定休、近鉄阿倍野店休業日に準じる  営業時間・定休日は変更となる場合がございますので、ご来店前に店舗にご確認ください。,http://www.antenor.jp/,,,大阪府大阪市阿倍野区阿倍野筋1-1-43,34.645952,135.513974
リンツ ショコラ ブティック＆カフェ りんくうプレミアム・アウトレット店,カフェ、チョコレート,大阪府泉佐野市りんくう往来南3-28 りんくうプレミアムアウトレット 2165区画 ,営業時間  10:00～20:00  日曜営業  定休日  不定休,,2015年6月3日,https://www.facebook.com/LindtJapan  https://twitter.com/LindtJapan  https://www.instagram.com/lindt_chocolate_japan/,大阪府泉佐野市りんくう往来南3-28,34.406295,135.295885
ローエンシュタイン 阪急梅田店（LAUENSTEIN）,チョコレート,大阪府大阪市北区角田町8-7 阪急うめだ本店 B2F ,,https://www.lauensteiner.de/confiserie/en/,2012年10月25日,https://www.facebook.com/ConfiserieLauenstein  https://twitter.com/lauensteiner  https://www.instagram.com/Lauenstein_Confiserie,大阪府大阪市北区角田町8-7,34.70305,135.498352
モンプチ ビア カカオ（monpetit via cacao）,チョコレート,大阪府大阪市北区中津1-15-33 曙ビル東館 1F ,営業時間  13:00～20:00  定休日  月曜日、火曜日、水曜日、  営業時間・定休日は変更となる場合がございますので、ご来店前に店舗にご確認ください。,,,,大阪府大阪市北区中津1-15-33,34.712171,135.496577
コンフィセリー・ラパート,ケーキ、チョコレート、洋菓子（その他）,大阪府東大阪市喜里川町2-20  このお店は「東大阪市旭町20-26」から移転しています。  ※移転前の情報は最新のものとは異なります。  移転前の店舗情報を見る,営業時間  日曜営業  定休日  月曜日(月1回火曜日休みあり)  営業時間・定休日は変更となる場合がございますので、ご来店前に店舗にご確認ください。,,2003年,https://www.facebook.com/スイス洋菓子店-コンフィセリーラパート-184526371915875/  https://www.instagram.com/confiserielabhart/,大阪府東大阪市喜里川町2-20,34.665968,135.640258
ショコラフィル（Chocolaphil）,チョコレート、洋菓子（その他）,大阪府大阪市中央区心斎橋筋1-7-1 大丸心斎橋店 本館 B1F ,営業時間  日曜営業  定休日  不定休  営業時間・定休日は変更となる場合がございますので、ご来店前に店舗にご確認ください。,,2019年9月20日,,大阪府大阪市中央区心斎橋筋1-7-1,34.67385,135.500963
ララ-ショコラ（LaLa-Chocolat）,チョコレート,大阪府高槻市城北町2-13-2,営業時間  10:00～19:00  定休日  日曜日・祝日、不定休(SNSにて告知)  営業時間・定休日は変更となる場合がございますので、ご来店前に店舗にご確認ください。,http://lala-chocolat.net/,2015年10月21日,https://www.facebook.com/LaLa-chocolat-1048562348501681/  https://www.instagram.com/lala_chocolat1021/,大阪府高槻市城北町2-13-2,34.848602,135.622951
リンツ ショコラ ブティック アルデ新大阪店,チョコレート,大阪府大阪市淀川区西中島5-16-1 アルデ新大阪 2F ,営業時間  10:00～21:00  日曜営業  営業時間・定休日は変更となる場合がございますので、ご来店前に店舗にご確認ください。,https://www.lindt.jp/contents/shop/1280/,2019年5月17日,,大阪府大阪市淀川区西中島5-16-1,34.73372,135.500836
アンリ・シャルパンティエ 難波高島屋店（HENRI CHARPENTIER）,ケーキ、チョコレート,大阪府大阪市中央区難波5-1-5 大阪タカシマヤ B1F ,営業時間  １０：００～２０：００  日曜営業  定休日  百貨店に準ずる  営業時間・定休日は変更となる場合がございますので、ご来店前に店舗にご確認ください。,http://www.henri-charpentier.com/,,,大阪府大阪市中央区難波5-1-5,34.664609,135.501263
BABBI 阪急うめだ店（バッビ）,チョコレート,大阪府大阪市北区角田町8-7 阪急うめだ本店 B1F ,営業時間  [月～木・日] 10:00～20:00 [金・土] 10:00～21:00  定休日  不定休(阪急うめだ本店に準ずる)  営業時間・定休日は変更となる場合がございますので、ご来店前に店舗にご確認ください。,,,,大阪府大阪市北区角田町8-7,34.70305,135.498352
ケンズカフェ東京 梅田店（KEN'S CAFE TOKYO）,チョコレート、ケーキ、洋菓子（その他）,大阪府大阪市北区茶屋町4-2 エスプライム茶屋町 1F ,営業時間  11:00～19:00  日曜営業  定休日  水曜日（祝日除く）,,,,大阪府大阪市北区茶屋町4-2,34.706309,135.499695
cafe こころひかる,カフェ、和菓子、チョコレート,大阪府大阪市天王寺区下寺町1-3-68 心光寺 ,営業時間  【営業日時】木〜日曜日・祝日木・金曜日→１１：３０〜１７：３０土・日曜日・祝日→ １１：３０〜１８：００（ラストオーダーはclose ３０分前）定休日→月・火臨時休業日→水・１２日（木）・２２日（日）  日曜営業  定休日  毎週月・火曜日,,,,大阪府大阪市天王寺区下寺町1-3-68,34.661741,135.511558
C.REST,チョコレート、スイーツ（その他）,大阪府大阪市中央区南船場4-2-18,営業時間  11:00～19:00  定休日  日曜日  営業時間・定休日は変更となる場合がございますので、ご来店前に店舗にご確認ください。,http://www.cqree.jp/c.rest/,,https://www.instagram.com/c.rest_2017/,大阪府大阪市中央区南船場4-2-18,34.67711,135.499679
アイノノピアーノショコラティエ 堂島店（Ai NONOPIANO CHOCOLATIER）,ケーキ、チョコレート、パン,大阪府大阪市北区堂島1-3-1 二葉ビル 1Ｆ ,営業時間  月～木 19:00～23:00　金 19:00～24:00※店舗ビル内へおみや配達時 短時間お店を閉めての配達対応する事がございます。※ケーキ類 完全売切の場合閉店させて頂く場合がございます。  定休日  土曜日・日曜日・祝日・お盆・年末年始・臨時休業はＨＰで告知,http://www.nonopiano.com/,2011年12月1日,https://www.facebook.com/nonopiano  https://www.instagram.com/ainonopiano,大阪府大阪市北区堂島1-3-1,34.69648,135.498473
リンツ ショコラ ブティック 天満橋京阪シティモール店,チョコレート,大阪府大阪市中央区天満橋京町1-1 京阪シティモール MBF ,営業時間  10:00～21:00(京阪シティモールの営業時間に準ずる)  日曜営業  営業時間・定休日は変更となる場合がございますので、ご来店前に店舗にご確認ください。,https://www.lindt.jp/contents/shop/1243/,2019年3月21日,,大阪府大阪市中央区天満橋京町1-1,34.690115,135.516403
パティシエ コーイチ 玉造・真田山店,ケーキ、チョコレート,大阪府大阪市天王寺区玉造本町4-17 ヤングイン玉造 1F ,,http://patissier-coichi.com/index.html,,,大阪府大阪市天王寺区玉造本町4-17,34.674188,135.531171
レオニダス 大阪梅田店（Leonidas）,チョコレート,大阪府大阪市北区曽根崎新地1 堂島地下街３ ,営業時間  月～金10:00～20:00土10:00～19:00  定休日  日曜・祝日,http://www.leonidas-alex.jp/,,,大阪府大阪市北区曽根崎新地1,34.698259,135.498823
レクレール・ドゥ・ジェニ 大阪高島屋店,ケーキ、チョコレート,大阪府大阪市中央区難波5-1-5 大阪タカシマヤ B1F ,営業時間  10:00～20:30  日曜営業  定休日  無休  営業時間・定休日は変更となる場合がございますので、ご来店前に店舗にご確認ください。,https://www.takashimaya.co.jp/store/special/leclairdegenie/index.html,2015年10月14日,,大阪府大阪市中央区難波5-1-5,34.664609,135.501263
MADAME Setsuko 阪急うめだ本店（マダム セツコ）,チョコレート,大阪府大阪市北区角田町8-7 阪急うめだ本店 B1F ,営業時間  日曜営業  定休日  不定休（阪急うめだに準ずる）  営業時間・定休日は変更となる場合がございますので、ご来店前に店舗にご確認ください。,http://www.setsuko.co.jp/,,,大阪府大阪市北区角田町8-7,34.70305,135.498352
ママンのおやつHiTO,ケーキ、チョコレート,大阪府交野市倉治5-15-1,営業時間  AM9：00～PM8：00,http://ma-man.jp/,,,大阪府交野市倉治5-15-1,34.796793,135.687646
ルヴィーブル（Revi&Bleu）,ケーキ、チョコレート、洋菓子（その他）,大阪府高槻市西真上1-36-3,営業時間  10:00～20:00  定休日  年中無休,http://www.revi-bleu.com/,2016年9月22日,,大阪府高槻市西真上1-36-3,34.858941,135.605892
菓子房 きぬた,ケーキ、チョコレート,大阪府東大阪市小阪本町2-11-2,営業時間  10:00～19:00  日曜営業  定休日  月曜日、火曜日(加えて不定休あり)  営業時間・定休日は変更となる場合がございますので、ご来店前に店舗にご確認ください。,https://www.oec-kinuta.org/,,https://twitter.com/hyoutanjimayum1,大阪府東大阪市小阪本町2-11-2,34.65776,135.581287
レオニダス 箕面小野原店（Leonidas）,カフェ、チョコレート、スイーツ（その他）,大阪府箕面市小野原西3-21-34,営業時間  [木～火]10:00～19:00(カフェL.O.18:30)  日曜営業  定休日  水曜日,,,,大阪府箕面市小野原西3-21-34,34.830416,135.51063
ゴディバ ららぽーとEXPOCITY店,チョコレート,大阪府吹田市千里万博公園2-1 ららぽーとEXPOCITY 1F ,営業時間  10:00～21:00  日曜営業  定休日  不定休(ららぽーとEXPOCITYに準ずる)  営業時間・定休日は変更となる場合がございますので、ご来店前に店舗にご確認ください。,https://www.godiva.co.jp/,2015年11月19日,https://www.facebook.com/GodivaJapan  https://twitter.com/godiva_jpn  https://www.instagram.com/godiva_japan/,大阪府吹田市千里万博公園2-1,34.805863,135.53511
アンリ・シャルパンティエ 心斎橋大丸店,ケーキ、チョコレート,大阪府大阪市中央区心斎橋筋1-7-1 大丸心斎橋店 B2F ,営業時間  10：00～20：00  定休日  不定休（大丸に準ずる）  営業時間・定休日は変更となる場合がございますので、ご来店前に店舗にご確認ください。,http://www.henri-charpentier.com/,,,大阪府大阪市中央区心斎橋筋1-7-1,34.67385,135.500963
レオニダス 千里中央店,チョコレート、ソフトクリーム、カフェ,大阪府豊中市新千里東町 1-1-3 SENRITOよみうり 2F ,営業時間  コロナ感染拡大防止のため営業日を変更しております。営業時間11時～19時までとなります。定休　土日  日曜営業  定休日  木曜日（6月～10月は各木曜日と第1・第2金曜日）,,,,大阪府豊中市新千里東町,34.811598,135.500447
ゴディバ 三番街店（GODIVA）,チョコレート、アイスクリーム,大阪府大阪市北区芝田1-1-3 阪急三番街 B2F ,営業時間  10:00～21:00  日曜営業  定休日  不定休(阪急三番街に準ずる)  営業時間・定休日は変更となる場合がございますので、ご来店前に店舗にご確認ください。,https://www.godiva.co.jp/,,https://www.facebook.com/GodivaJapan  https://twitter.com/godiva_jpn  https://www.instagram.com/godiva_japan/,大阪府大阪市北区芝田1-1-3,34.706018,135.498238
メリー 高島屋大阪店,チョコレート,大阪府大阪市中央区難波5-1-5 大阪タカシマヤ 1F ,営業時間  10:00～20:00  日曜営業  定休日  無休  営業時間・定休日は変更となる場合がございますので、ご来店前に店舗にご確認ください。,http://www.mary.co.jp/shoplist/kansai/index.html#osaka,,,大阪府大阪市中央区難波5-1-5,34.664609,135.501263
ミナモアレ 大丸梅田店,洋菓子（その他）、チョコレート,大阪府大阪市北区梅田3-1-1 大丸梅田 B1 ,営業時間  ［月・火・水・木・日］10:00～20:30［金・土］10:00～21:00 日曜営業  営業時間・定休日は変更となる場合がございますので、ご来店前に店舗にご確認ください。,http://minamoalley.co.jp,2017年9月1日,,大阪府大阪市北区梅田3-1-1,34.703075,135.495271
ホテル ショコラ りんくう泉南店（HOTEL Chocolat）,チョコレート、カフェ,大阪府泉南市りんくう南浜3-12 イオンモールりんくう泉南 1F ,営業時間  10:00～21:00  日曜営業  営業時間・定休日は変更となる場合がございますので、ご来店前に店舗にご確認ください。,https://hotelchocolat.co.jp/pages/rinkusennan,2019年12月6日,https://www.facebook.com/hotelchocolatjp  https://twitter.com/hotelchocolatjp,大阪府泉南市りんくう南浜3-12,34.37941,135.266769
移転  ココロトカカオ（KOKORO TO CACAO）  移転前の店舗情報です。新しい店舗はココロトカカオ（kokoro to cacao）をご参照ください。,チョコレート、ケーキ,大阪府堺市西区菱木2-2183-5,営業時間  第三月曜日のみ営業10:00～22:00  定休日  火曜日、水曜日、木曜日、金曜日、土曜日、日曜日  営業時間・定休日は変更となる場合がございますので、ご来店前に店舗にご確認ください。,,2020年11月16日,https://www.instagram.com/tocoto.ltd/,大阪府堺市西区菱木2-2183-5,34.513732,135.470649
モロゾフ 高島屋大阪店,チョコレート,大阪府大阪市中央区難波5-1-5 大阪タカシマヤ 1F ,営業時間  10:00～20:00  定休日  不定休(大阪高島屋に準ずる)  営業時間・定休日は変更となる場合がございますので、ご来店前に店舗にご確認ください。,,,,大阪府大阪市中央区難波5-1-5,34.664609,135.501263
ヴィタメール 近鉄あべのハルカス店,チョコレート、ケーキ,大阪府大阪市阿倍野区阿倍野筋1-1-43 あべのハルカス 近鉄本店 B1F ,営業時間  10:00～20:30  日曜営業  定休日  不定休(あべのハルカス近鉄本店に準ずる)  営業時間・定休日は変更となる場合がございますので、ご来店前に店舗にご確認ください。,https://www.wittamer.jp//,2015年5月28日,,大阪府大阪市阿倍野区阿倍野筋1-1-43,34.645952,135.513974
エクチュア 大丸心斎橋店,チョコレート,大阪府大阪市中央区心斎橋筋1-7-1 大丸心斎橋店 本館 B1F   このお店は「大阪市中央区心斎橋筋1-7-1」から移転しています。  ※移転前の情報は最新のものとは異なります。  移転前の店舗情報を見る,,http://www.ek-chuah.co.jp/,,,大阪府大阪市中央区心斎橋筋1-7-1,34.67385,135.500963
ケーキ ラボ シード 岸和田店（cake labo seed）,ケーキ、チョコレート,大阪府岸和田市土生町4-3-1-106,営業時間  [月～土]10:00～20:00[日・祝]10:00～18:00  日曜営業  定休日  無休  営業時間・定休日は変更となる場合がございますので、ご来店前に店舗にご確認ください。,,,,大阪府岸和田市土生町4-3-1-106,34.448398,135.385724
グラン フール 阪神梅田本店（GRAND FOUR）,ケーキ、チョコレート,大阪府大阪市北区梅田1-13-13 阪神百貨店梅田本店 B1F ,営業時間  阪神梅田本店に準ずる  日曜営業  定休日  阪神梅田本店に準ずる  営業時間・定休日は変更となる場合がございますので、ご来店前に店舗にご確認ください。,http://www.hanshin-dept.jp/dept/,2009年8月26日,,大阪府大阪市北区梅田1-13-13,34.701132,135.499039
ムッシュショコラ,洋菓子（その他）、チョコレート,大阪府大阪市淀川区西中島5-16-1 JR新大阪駅 Sweets PATIO ,,,2015年12月17日,,大阪府大阪市淀川区西中島5-16-1,34.73372,135.500836
ショコラティエ ポワン（chocolatier point）,チョコレート、ケーキ,大阪府豊中市上野東2-17-47 Point 2F ,営業時間  11:00～16:00  定休日  日曜日、月曜日  営業時間・定休日は変更となる場合がございますので、ご来店前に店舗にご確認ください。,http://point-accueillir.com/,2019年12月10日,,大阪府豊中市上野東2-17-47,34.792287,135.476003
ジュール,ケーキ、チョコレート,大阪府大阪市住之江区中加賀屋2-4-22,営業時間  10:00～20:00  日曜営業  定休日  月曜日(祝日の場合翌日),https://jour-france-cake.jimdofree.com,2012年4月4日,https://www.facebook.com/フランス菓子-ジュール-271509866268106/  https://www.instagram.com/jour_france_cake/,大阪府大阪市住之江区中加賀屋2-4-22,34.617827,135.481513
エーデル 放出東店,ケーキ、チョコレート,大阪府大阪市鶴見区放出東2-22-17,営業時間  [月～土]9:00～21:00[日・祝]9:00～20:00  定休日  無休  営業時間・定休日は変更となる場合がございますので、ご来店前に店舗にご確認ください。,,,,大阪府大阪市鶴見区放出東2-22-17,34.691979,135.566009
メリーチョコレート 阪神百貨店（Mary Chocolate）,チョコレート,大阪府大阪市北区梅田1-13-13 阪神百貨店梅田本店 F ,営業時間  10:00～20:00  定休日  不定休(阪神梅田本店に準ずる)  営業時間・定休日は変更となる場合がございますので、ご来店前に店舗にご確認ください。,http://www.mary.co.jp/,,,大阪府大阪市北区梅田1-13-13,34.701132,135.499039
ゴディバ 大阪高島屋（GODIVA）,チョコレート、アイスクリーム,大阪府大阪市中央区難波5-1-5 大阪タカシマヤ B1F ,営業時間  [日～木]10:00～20:00[金・土]10:00～20:30  日曜営業  定休日  不定休(大阪タカシマヤに準ずる)  営業時間・定休日は変更となる場合がございますので、ご来店前に店舗にご確認ください。,https://www.godiva.co.jp/,,https://www.facebook.com/GodivaJapan  https://twitter.com/godiva_jpn  https://www.instagram.com/godiva_japan/,大阪府大阪市中央区難波5-1-5,34.664609,135.501263
モロゾフチョコレートショップ なんばウォーク店,チョコレート、ケーキ,大阪府大阪市中央区難波2-1-10 なんばウォーク ,営業時間  10:00～21:00  日曜営業  定休日  無休  営業時間・定休日は変更となる場合がございますので、ご来店前に店舗にご確認ください。,http://www.morozoff.co.jp/,,,大阪府大阪市中央区難波2-1-10,34.667147,135.499548
モロゾフ 近鉄上本町店（MOROZOFF）,チョコレート、ケーキ,大阪府大阪市天王寺区上本町6-1-55 近鉄百貨店上本町店 B2F ,営業時間  10:00～20:00  日曜営業  定休日  近鉄上本町店に準ずる  営業時間・定休日は変更となる場合がございますので、ご来店前に店舗にご確認ください。,http://www.morozoff.co.jp/,,https://www.facebook.com/morozoff.limited  https://twitter.com/morozoff_sp  https://www.instagram.com/morozoff_sp/,大阪府大阪市天王寺区上本町6-1-55,34.665579,135.520925
リンツ ショコラ ブティック＆カフェ 天王寺ミオ店,カフェ、チョコレート,大阪府大阪市天王寺区悲田院町10-48 天王寺ミオプラザ館 2F ,営業時間  10:00～21:00,https://www.lindt.jp/,2019年3月1日,,大阪府大阪市天王寺区悲田院町10-48,34.647654,135.514038
コカルド OBP店,ケーキ、チョコレート,大阪府大阪市中央区城見2丁目1-61 ツイン21 1 ,営業時間  10:00～22:00  日曜営業  定休日  日曜日、不定休  営業時間・定休日は変更となる場合がございますので、ご来店前に店舗にご確認ください。,https://www.cocarde.jp/,,https://www.instagram.com/cocarde1990/,大阪府大阪市中央区城見2丁目1-61,34.692954,135.531315
27℃ 肥後橋店,ケーキ、チョコレート,大阪府大阪市西区江戸堀1-1-11,営業時間  10:00～19:00  営業時間・定休日は変更となる場合がございますので、ご来店前に店舗にご確認ください。,https://www.mon-cher.com/special/27c_higobashi/,2022年4月27日,https://www.instagram.com/27c_higobashi,大阪府大阪市西区江戸堀1-1-11,34.692004,135.497165
monoGRAM studio cafe（モノグラムスタジオカフェ）,カフェ、チョコレート、洋菓子（その他）,大阪府茨木市元町1-17 シェルエメール 1F ,営業時間  月〜日11:00〜20:00（L.O）  日曜営業  定休日  毎週水曜日,,,,大阪府茨木市元町1-17,34.817361,135.572936
チョコレートショップ スカイスター（SKY STAR）,チョコレート,大阪府大阪市東淀川区淡路4-18-13 1F ,営業時間  10:00～19:00 (10月～11月・4月～5月)10:00～18:00(12月～3月)6月～9月までお休みです。  日曜営業  定休日  月曜日・木曜日(祝日やイベント前は営業)  営業時間・定休日は変更となる場合がございますので、ご来店前に店舗にご確認ください。,,2017年10月5日,https://www.facebook.com/Skystar-149986038944459/  https://www.instagram.com/skystar20171005/,大阪府大阪市東淀川区淡路4-18-13,34.740879,135.514534
桜チョコレート（Sakura CHOCOLATE）,チョコレート、ケーキ,大阪府堺市南区豊田982-2,営業時間  10:00～19:00  定休日  年中無休 (元日のみ休業）  営業時間・定休日は変更となる場合がございますので、ご来店前に店舗にご確認ください。,https://www.sakura-coffee.jp/,,,大阪府堺市南区豊田982-2,34.493621,135.495826
ミナモアレ なんばマルイ店,チョコレート,大阪府大阪市中央区難波3-8-9 なんばマルイ 1F ,,,,,大阪府大阪市中央区難波3-8-9,34.665515,135.501002
モンロワール なんばウォーク店,チョコレート,大阪府大阪市中央区難波2 なんばウォ−ク 1-12 ,営業時間  10:00～21:00  日曜営業  定休日  不定休  営業時間・定休日は変更となる場合がございますので、ご来店前に店舗にご確認ください。,,,,大阪府大阪市中央区難波2,34.667592,135.498385
バトンドール 大阪国際空港（伊丹空港）店（Baton dor）,チョコレート,大阪府豊中市蛍池西町3-555 大阪国際空港 ターミナルビル 2F ,営業時間  7:30～19:30  日曜営業  営業時間・定休日は変更となる場合がございますので、ご来店前に店舗にご確認ください。,https://www.glico.com/jp/enjoy/shop/batondorshop/itamikuko/,,,大阪府豊中市蛍池西町3-555,34.790663,135.441212
ハイジ 大丸梅田店（HEIDI）,洋菓子（その他）、チョコレート、ケーキ,大阪府大阪市北区梅田3-1-1 大丸梅田店 ,営業時間  ［月～木・日］10:00～20:30［金･土］10:00～21:00(大丸梅田店地下1階営業時間に準ずる)  日曜営業  定休日  大丸梅田店に準ずる  営業時間・定休日は変更となる場合がございますので、ご来店前に店舗にご確認ください。,http://heidi-cake.co.jp,2019年9月11日,,大阪府大阪市北区梅田3-1-1,34.703075,135.495271
マキャプート 大阪タカシマヤ店（Makea Puut）,チョコレート,大阪府大阪市中央区難波5-1-5 大阪タカシマヤ B1F ,営業時間  10:00～20:00  日曜営業  定休日  年中無休  営業時間・定休日は変更となる場合がございますので、ご来店前に店舗にご確認ください。,http://www.mary.co.jp/new_open/makeapuut.html,2013年3月6日,,大阪府大阪市中央区難波5-1-5,34.664609,135.501263
キャンディー・ア・ゴー・ゴー 心斎橋店（CANDY A☆GO☆GO!）,洋菓子（その他）、チョコレート,大阪府大阪市中央区心斎橋筋1-6-1 心斎橋161 1F ,営業時間  11:00～21:00  日曜営業  定休日  無休  営業時間・定休日は変更となる場合がございますので、ご来店前に店舗にご確認ください。,,2016年4月21日,,大阪府大阪市中央区心斎橋筋1-6-1,34.672672,135.501264
スペース・ファンタジー・ステーション,チョコレート,大阪府大阪市此花区桜島2-1-33 ユニバーサルスタジオジャパン ハリウッドエリア　スペース・ファンタジー・ザ・ライド前 ,営業時間  ユニバーサル・スタジオ・ジャパンに準ずる  日曜営業  定休日  不定休(ユニバーサル・スタジオ・ジャパンに準ずる)  営業時間・定休日は変更となる場合がございますので、ご来店前に店舗にご確認ください。,,,,大阪府大阪市此花区桜島2-1-33,34.667266,135.433643
お菓子工房Echelle,ケーキ、洋菓子（その他）、チョコレート,大阪府守口市大久保町2丁目26-13,営業時間  [木・金・土]11:00～19:00  定休日  月・火・水・日  営業時間・定休日は変更となる場合がございますので、ご来店前に店舗にご確認ください。,https://echelle.info/,2018年5月24日,https://www.facebook.com/お菓子工房Echelle-531838070581102/  https://twitter.com/Echelle20445961  https://www.instagram.com/kashi.echelle,大阪府守口市大久保町2丁目26-13,34.750797,135.602332
ゴディバ あべのハルカス近鉄本店（GODIVA）,チョコレート,大阪府大阪市阿倍野区阿倍野筋1-1-43 あべのハルカス 近鉄本店　タワー館B1F ,営業時間  10:00～20:30  日曜営業  定休日  施設に準ずる  営業時間・定休日は変更となる場合がございますので、ご来店前に店舗にご確認ください。,https://www.godiva.co.jp/,,https://www.facebook.com/GodivaJapan  https://twitter.com/godiva_jpn  https://www.instagram.com/godiva_japan/,大阪府大阪市阿倍野区阿倍野筋1-1-43,34.645952,135.513974
ラ・メゾン・デュ・ショコラ 大阪タカシマヤ店,チョコレート,大阪府大阪市中央区難波5-15 大阪タカシマヤ B1F ,営業時間  10:00～20:00  日曜営業  定休日  大阪タカシマヤに準ずる  営業時間・定休日は変更となる場合がございますので、ご来店前に店舗にご確認ください。,https://www.lamaisonduchocolat.co.jp/ja_jp/,,https://www.facebook.com/LaMaisonduChocolatJapon/  https://www.instagram.com/lamaisonduchocolat_jp/,大阪府大阪市中央区難波5-15,34.664499,135.501331
ゴディバ 大丸心斎橋（GODIVA）,チョコレート,大阪府大阪市中央区心斎橋筋1-7-1 大丸心斎橋店 B2F ,営業時間  10:00～20:00  日曜営業  定休日  大丸心斎橋店に準ずる  営業時間・定休日は変更となる場合がございますので、ご来店前に店舗にご確認ください。,https://www.godiva.co.jp/,,https://www.facebook.com/GodivaJapan  https://twitter.com/godiva_jpn  https://www.instagram.com/godiva_japan/,大阪府大阪市中央区心斎橋筋1-7-1,34.67385,135.500963
ゴンチャロフ 阪急百貨店うめだ本店（Goncharoff）,チョコレート,大阪府大阪市北区角田町8-7 阪急うめだ本店 だ本店 B1F ,営業時間  [月～木・日] 10:00～20:00 [金・土] 10:00～21:00  日曜営業  定休日  不定休(阪急百貨店うめだ本店に準ずる)  営業時間・定休日は変更となる場合がございますので、ご来店前に店舗にご確認ください。,http://www.goncharoff.co.jp/,,https://www.instagram.com/goncharoff_1923/,大阪府大阪市北区角田町8-7,34.70305,135.498352
ゴンチャロフ 阪神百貨店梅田本店（Goncharoff）,チョコレート,大阪府大阪市北区梅田1-13-13 阪神百貨店梅田本店 ,営業時間  [月・火] 10:00～20:30 [水～土] 10:00～21:00 [日・祝] 10:00～20:00  日曜営業  定休日  年中無休  営業時間・定休日は変更となる場合がございますので、ご来店前に店舗にご確認ください。,http://www.goncharoff.co.jp/,,,大阪府大阪市北区梅田1-13-13,34.701132,135.499039
ゴディバ 阪神梅田本店,チョコレート、アイスクリーム,大阪府大阪市北区梅田1-13-13 阪神百貨店梅田本店 ,営業時間  阪神百貨店本店に準ずる  定休日  阪神百貨店本店に準ずる  営業時間・定休日は変更となる場合がございますので、ご来店前に店舗にご確認ください。,http://www.godiva.co.jp/products/ice.php,,,大阪府大阪市北区梅田1-13-13,34.701132,135.499039
ゴディバ イオンモール大日店（GODIVA）,チョコレート,大阪府守口市大日東町1-18 イオンモール大日 1F ,営業時間  9:00～22:00(ドリンクL.O.21:00)  日曜営業  定休日  不定休(イオンモール大日に準ずる)  営業時間・定休日は変更となる場合がございますので、ご来店前に店舗にご確認ください。,https://www.godiva.co.jp/,2012年11月16日,https://www.facebook.com/GodivaJapan  https://twitter.com/godiva_jpn  https://www.instagram.com/godiva_japan/,大阪府守口市大日東町1-18,34.749561,135.580207
ゴディバ ららぽーと和泉店（GODIVA）,チョコレート,大阪府和泉市あゆみ野4-4-7 ららぽーと和泉 2F ,営業時間  10:00～21:00  日曜営業  定休日  不定休(ららぽーと和泉に準ずる)  営業時間・定休日は変更となる場合がございますので、ご来店前に店舗にご確認ください。,https://www.godiva.co.jp/,2014年10月30日,https://www.facebook.com/GodivaJapan  https://twitter.com/godiva_jpn  https://www.instagram.com/godiva_japan/,大阪府和泉市あゆみ野4-4-7,34.437033,135.448335
メリーチョコレート 近鉄百貨店上本町店,チョコレート,大阪府大阪市天王寺区上本町6-1-55 近鉄百貨店上本町店 B2F ,営業時間  10:00～20:00  定休日  近鉄百貨上本町店に準ずる  営業時間・定休日は変更となる場合がございますので、ご来店前に店舗にご確認ください。,http://www.mary.co.jp/,,,大阪府大阪市天王寺区上本町6-1-55,34.665579,135.520925
モロゾフ 大丸梅田店,ケーキ、チョコレート,大阪府大阪市北区梅田3-1-1 大丸梅田店 B1F ,営業時間  10:00～20:00  定休日  梅田大丸の休日に準ずる  営業時間・定休日は変更となる場合がございますので、ご来店前に店舗にご確認ください。,http://www.morozoff.co.jp/index.html,,,大阪府大阪市北区梅田3-1-1,34.703075,135.495271
ゴディバ 堺北花田店（GODIVA）,チョコレート、カフェ,大阪府堺市北区東浅香山町4-1-12 イオンモール北花田 1F ,営業時間  10:00～21:00(ドリンクL.O.20:30)  日曜営業  定休日  不定休(イオンモール北花田に準ずる)  営業時間・定休日は変更となる場合がございますので、ご来店前に店舗にご確認ください。,http://www.godiva.co.jp,2017年7月13日,https://www.facebook.com/GodivaJapan  https://twitter.com/godiva_jpn  https://www.instagram.com/godiva_japan/,大阪府堺市北区東浅香山町4-1-12,34.584482,135.514728
ゴディバ あべのキューズモール店,チョコレート,大阪府大阪市阿倍野区阿倍野筋1-6-1 あべのキューズモール B1F ,営業時間  10:00～21:00  日曜営業  定休日  あべのキューズモールに準ずる  営業時間・定休日は変更となる場合がございますので、ご来店前に店舗にご確認ください。,https://www.godiva.co.jp/,,https://www.facebook.com/GodivaJapan  https://twitter.com/godiva_jpn  https://www.instagram.com/godiva_japan/,大阪府大阪市阿倍野区阿倍野筋1-6-1,34.645046,135.511727
モロゾフ 京阪百貨店モール京橋店,チョコレート,大阪府大阪市都島区東野田町2-1-38 京阪百貨店モール京橋店 B1F ,営業時間  10:00～20:00  定休日  無休  営業時間・定休日は変更となる場合がございますので、ご来店前に店舗にご確認ください。,http://www.morozoff.co.jp/index.html,,https://www.facebook.com/morozoff.limited  https://twitter.com/morozoff_sp  https://www.instagram.com/morozoff_sp/,大阪府大阪市都島区東野田町2-1-38,34.697678,135.532913
神戸フランツ アルデ新大阪店（KOBE Frantz）,チョコレート、洋菓子（その他）、ケーキ,大阪府大阪市淀川区西中島5-16-1 ＪＲ新大阪駅２階アルデ新大阪 ,営業時間  営業時間：9:00～21:00  日曜営業  定休日  年中無休,http://www.frantz.jp/,2017年8月12日,https://www.facebook.com/frantzshinosaka/  https://twitter.com/kobefrantz  https://www.instagram.com/kobefrantz/,大阪府大阪市淀川区西中島5-16-1,34.73372,135.500836
レオニダス 豊中店,チョコレート,大阪府豊中市西緑丘2-6-28,営業時間  [木～火]10:00～19:00  日曜営業  定休日  水曜,http://www.leonidas-alex.jp/,,https://twitter.com/leonidasbyalex  https://www.instagram.com/leonidasmisumi/,大阪府豊中市西緑丘2-6-28,34.808794,135.477457
レオニダス 香里園店（Leonidas）,チョコレート,大阪府寝屋川市香里本通町11-8,営業時間  10:00～18:00  日曜営業  定休日  毎週水曜、第3火曜定休  営業時間・定休日は変更となる場合がございますので、ご来店前に店舗にご確認ください。,http://www.leonidas-alex.jp/,2009年2月1日,,大阪府寝屋川市香里本通町11-8,34.784521,135.634364
カンキツ屋,チョコレート、洋菓子（その他）、スイーツ（その他）,大阪府大阪市北区浪花町8-5,営業時間  13:00-17:00※月曜日水、金は仕込み日ですが、販売可能とのこと。予め確認するのをオススメします。  日曜営業  定休日  月曜日、水曜日、金曜日  営業時間・定休日は変更となる場合がございますので、ご来店前に店舗にご確認ください。,https://kankitsuya.edisone.jp/,2020年10月15日,https://www.instagram.com/kankitsuya/?hl=ja,大阪府大阪市北区浪花町8-5,34.707931,135.510197
フーシェ あべの近鉄,チョコレート,大阪府大阪市阿倍野区阿倍野筋1-1-43 B2F ,営業時間  10:00～20:30  定休日  不定休  営業時間・定休日は変更となる場合がございますので、ご来店前に店舗にご確認ください。,http://www.matsukazeya.co.jp/syouhin/foucher/foucher.html,,,大阪府大阪市阿倍野区阿倍野筋1-1-43,34.645952,135.513974
リ・オ・ショコラ 高槻阪急店,チョコレート,大阪府高槻市白梅町4-1 高槻阪急店 B1F ,営業時間  9:00～22:00  定休日  不定休(西部高槻店に準ずる)  営業時間・定休日は変更となる場合がございますので、ご来店前に店舗にご確認ください。,,2015年10月15日,,大阪府高槻市白梅町4-1,34.853398,135.618343
マカロフ．Ｇ 松坂屋高槻店,ケーキ、チョコレート,大阪府高槻市紺屋町2-1 松坂屋高槻店 B1F ,営業時間  10:00～20:00  日曜営業  定休日  無休  営業時間・定休日は変更となる場合がございますので、ご来店前に店舗にご確認ください。,,,,大阪府高槻市紺屋町2-1,34.850541,135.618417
ジェシカ（JESSICA）,チョコレート,大阪府大阪市北区中崎町1-11-7 第三中野ビル 1F ,営業時間  9:00～17:00  営業時間・定休日は変更となる場合がございますので、ご来店前に店舗にご確認ください。,,2017年10月9日,,大阪府大阪市北区中崎町1-11-7,34.708059,135.507054
リンツ ショコラ ブティック 京橋京阪モール店（Lindt Chocolat Boutique）,チョコレート,大阪府大阪市都島区東野田町2-1-38 京阪モール ホテル館 1F ,営業時間  11:00～21:00  日曜営業  営業時間・定休日は変更となる場合がございますので、ご来店前に店舗にご確認ください。,https://www.lindt.jp/,2021年12月10日,,大阪府大阪市都島区東野田町2-1-38,34.697678,135.532913
AMANA BY MITATE 箕面店（アマナ バイ ミタテ）,チョコレート、カフェ,大阪府箕面市森町中1-18-16,営業時間  11:00～16:30  日曜営業  定休日  不定休  営業時間・定休日は変更となる場合がございますので、ご来店前に店舗にご確認ください。,https://amana-minoo.jp,2022年2月5日,https://www.instagram.com/amana_by_mitate_minoo,大阪府箕面市森町中1-18-16,34.889695,135.462149
Madame Delluc ヒルトンプラザ店（マダム ドリュック）,チョコレート、スイーツ（その他）,大阪府大阪市北区梅田1-8-16 ヒルトンプラザイースト 2F ,営業時間  11:00～19:00  日曜営業  定休日  不定休  営業時間・定休日は変更となる場合がございますので、ご来店前に店舗にご確認ください。,https://madamedelluc.jp,2022年2月10日,https://twitter.com/madame_delluc  https://www.instagram.com/madamedelluc_shops_japan/,大阪府大阪市北区梅田1-8-16,34.69994,135.495988
ロイスピエール 阪神梅田本店,チョコレート、ケーキ,大阪府大阪市北区梅田1-13-13 阪神百貨店梅田本店 F ,営業時間  [月・火・日] 10:00～20:00 [水～土] 10:00～21:00  定休日  不定休(阪神梅田本店に準じる)  営業時間・定休日は変更となる場合がございますので、ご来店前に店舗にご確認ください。,http://www.hanshin-dept.jp/dept/,,,大阪府大阪市北区梅田1-13-13,34.701132,135.499039
PRAZA ららぽーとEXPOCITY店（プラザ）,チョコレート、その他,大阪府吹田市千里万博公園2-1 ららぽーとEXPOCITY 1F ,営業時間  10:00～21:00  定休日  不定休(ららぽーとEXPOCITYに準ずる)  営業時間・定休日は変更となる場合がございますので、ご来店前に店舗にご確認ください。,,2015年11月17日,,大阪府吹田市千里万博公園2-1,34.805863,135.53511
オブ ザ オーブン（of the oven）,洋菓子（その他）、チョコレート,大阪府大阪市中央区難波5-1-60 なんばCITY 本館 1F ,営業時間  10:00～21:00  日曜営業  営業時間・定休日は変更となる場合がございますので、ご来店前に店舗にご確認ください。,,,,大阪府大阪市中央区難波5-1-60,34.66406,135.501469
ハツガ（HATSUGA）,チョコレート,大阪府大阪市都島区都島中通3-5-10,営業時間  11:00～13:00  日曜営業  定休日  月曜日、火曜日、水曜日、木曜日、金曜日、土曜日  営業時間・定休日は変更となる場合がございますので、ご来店前に店舗にご確認ください。,https://hatsuga-cookie.jimdo.com/,,,大阪府大阪市都島区都島中通3-5-10,34.70307,135.535894
クレ・ド・カカオ 松坂屋高槻店,チョコレート、ケーキ,大阪府高槻市紺町2-1 松坂屋高槻店 B1F ,営業時間  10:00～20:00  定休日  年中無休(1月1日のみ休み)  営業時間・定休日は変更となる場合がございますので、ご来店前に店舗にご確認ください。,,,,大阪府高槻市紺町2-1,34.850541,135.618417
アイダ ジェネラル ストア なんばCITY店（AIDA general store）,チョコレート,大阪府大阪市中央区なんば5-1-60 なんばCITY 南館 2F ,営業時間  10:00～21:00  定休日  不定休 （なんばCITYに準ずる。）  営業時間・定休日は変更となる場合がございますので、ご来店前に店舗にご確認ください。,,,https://www.instagram.com/aida_namba/,大阪府大阪市中央区なんば5-1-60,34.66406,135.501469
ゴンチャロフ あべのハルカス近鉄本店（Goncharoff）,チョコレート,大阪府大阪市阿倍野区阿倍野筋1-1-43 あべのハルカス 近鉄本店 ,営業時間  10:00～21:00  定休日  不定休(あべのハルカス近鉄本店に準ずる)  営業時間・定休日は変更となる場合がございますので、ご来店前に店舗にご確認ください。,http://www.goncharoff.co.jp/,,,大阪府大阪市阿倍野区阿倍野筋1-1-43,34.645952,135.513974
ゴディバ 高島屋堺店（GODIVA）,チョコレート,大阪府堺市堺区三国ケ丘御幸通59 堺タカシマヤ 2F ,営業時間  10:00～19:00  日曜営業  定休日  不定休(堺タカシマヤに準ずる)  営業時間・定休日は変更となる場合がございますので、ご来店前に店舗にご確認ください。,https://www.godiva.co.jp/boutique/?view=detail&store_code=725075,,https://www.facebook.com/GodivaJapan  https://twitter.com/godiva_jpn  https://www.instagram.com/godiva_japan/,大阪府堺市堺区三国ケ丘御幸通59,34.576506,135.484763
リンツ ショコラ ブティック＆カフェ ルクア大阪店,カフェ、チョコレート,大阪府大阪市北区梅田3-1-3 ルクア B1F ,営業時間  10:00～21:00  定休日  ルクア大阪の営業時間に準ずる,http://www.lindt.jp,2020年7月1日,https://www.facebook.com/LindtJapan  https://twitter.com/LindtJapan  https://www.instagram.com/Lindt_Chocolate_Japan,大阪府大阪市北区梅田3-1-3,34.702887,135.495324
Mary's 近鉄百貨店阿倍野本店（メリー）,チョコレート,大阪府大阪市阿倍野区阿倍野筋1-1-43 あべのハルカス近鉄本店 ,,http://www.mary.co.jp/,,,大阪府大阪市阿倍野区阿倍野筋1-1-43,34.645952,135.513974
モンロワール 豊中店,チョコレート,大阪府豊中市玉井町1-1-1 エトレ豊中 ,営業時間  10:00～20:00  定休日  不定休（月約1日）  営業時間・定休日は変更となる場合がございますので、ご来店前に店舗にご確認ください。,https://www.monloire.co.jp,,,大阪府豊中市玉井町1-1-1,34.786923,135.461349
ゴディバ 泉北高島屋店（ＧＯＤＩＶＡ）,チョコレート,大阪府堺市南区茶山台1-3-1 泉北タカシマヤ ,営業時間  10:00～19:00  日曜営業  定休日  泉北タカシマヤに準ずる  営業時間・定休日は変更となる場合がございますので、ご来店前に店舗にご確認ください。,https://www.godiva.co.jp/,,https://www.facebook.com/GodivaJapan  https://twitter.com/godiva_jpn  https://www.instagram.com/godiva_japan/,大阪府堺市南区茶山台1-3-1,34.496292,135.515257
モンロワール 近鉄あべのハルカス店,チョコレート,大阪府大阪市阿倍野区阿倍野筋1-1-43 あべのハルカス 近鉄本店 B1F ,営業時間  10:00～20:30  定休日  不定休(あべのハルカス近鉄本店に準ずる)  営業時間・定休日は変更となる場合がございますので、ご来店前に店舗にご確認ください。,https://www.monloire.co.jp/,2015年5月28日,,大阪府大阪市阿倍野区阿倍野筋1-1-43,34.645952,135.513974
ゴディバホテル日航大阪店,チョコレート,大阪府大阪市中央区西心斎橋1-3-3 ホテル日航大阪 1F ,営業時間  open11:00～20:00  日曜営業  定休日  不定休  営業時間・定休日は変更となる場合がございますので、ご来店前に店舗にご確認ください。,https://www.godiva.co.jp/,,https://www.facebook.com/GodivaJapan  https://twitter.com/godiva_jpn  https://www.instagram.com/godiva_japan/,大阪府大阪市中央区西心斎橋1-3-3,34.6739,135.499711
ゴディバ 京阪モール京橋店（GODIVA）,チョコレート、アイスクリーム,大阪府大阪市都島区東野田町2-1-38 京阪百貨店 モール京橋店 1F ,営業時間  10:30～21:00  日曜営業  定休日  不定休(京阪モールに準ずる)  営業時間・定休日は変更となる場合がございますので、ご来店前に店舗にご確認ください。,https://www.godiva.co.jp/boutique/index.html?view=detail&store_code=723700,2017年3月17日,https://www.facebook.com/GodivaJapan  https://twitter.com/godiva_jpn  https://www.instagram.com/godiva_japan/,大阪府大阪市都島区東野田町2-1-38,34.697678,135.532913
ゴンチャロフ 高島屋大阪店（Goncharoff）,チョコレート,大阪府大阪市中央区難波5-1-5 大阪タカシマヤ B1F ,営業時間  10:00～20:00  定休日  不定休(大阪タカシマヤに準ずる)  営業時間・定休日は変更となる場合がございますので、ご来店前に店舗にご確認ください。,http://www.goncharoff.co.jp/,,,大阪府大阪市中央区難波5-1-5,34.664609,135.501263
モロゾフ 松坂屋高槻店,チョコレート、ケーキ,大阪府高槻市紺屋町2-1 松坂屋高槻店 B1F ,営業時間  10:00～20:00  定休日  年中無休(1月1日のみ休み)  営業時間・定休日は変更となる場合がございますので、ご来店前に店舗にご確認ください。,,,,大阪府高槻市紺屋町2-1,34.850541,135.618417
モロゾフ 高槻阪急店,チョコレート、ケーキ,大阪府高槻市白梅町4-1 高槻阪急店 B1F ,営業時間  10:00〜20:00  日曜営業  定休日  高槻阪急に準ずる  営業時間・定休日は変更となる場合がございますので、ご来店前に店舗にご確認ください。,http://www.morozoff.co.jp,,https://www.facebook.com/morozoff.limited  https://twitter.com/morozoff_sp  https://www.instagram.com/morozoff_sp/,大阪府高槻市白梅町4-1,34.853398,135.618343
ゴディバ 京阪くずはモール店（GODIVA）,チョコレート,大阪府枚方市楠葉花園町15-1 京阪百貨店くずはモール店 1F ,営業時間  10:00～20:00  日曜営業  定休日  不定休(京阪百貨店くずはモール店に準ずる)  営業時間・定休日は変更となる場合がございますので、ご来店前に店舗にご確認ください。,https://www.godiva.co.jp/,2015年12月17日,https://www.facebook.com/GodivaJapan  https://twitter.com/godiva_jpn  https://www.instagram.com/godiva_japan/,大阪府枚方市楠葉花園町15-1,34.862232,135.677107
モロゾフ フレスト天満橋店（Morozoff）,ケーキ、チョコレート,大阪府大阪市中央区天満橋京町1-1 京阪シティモール TY MALL B2F ,営業時間  10:00～21:00  日曜営業  定休日  無休  営業時間・定休日は変更となる場合がございますので、ご来店前に店舗にご確認ください。,http://www.morozoff.co.jp,,,大阪府大阪市中央区天満橋京町1-1,34.690115,135.516403
ゴンチャロフ 高島屋泉北店（Goncharoff）,チョコレート,大阪府堺市南区茶山台1-3-1 泉北タカシマヤ 1F ,営業時間  10:00～19:00  日曜営業  定休日  泉北タカシマヤに準ずる  営業時間・定休日は変更となる場合がございますので、ご来店前に店舗にご確認ください。,http://www.goncharoff.co.jp/,,,大阪府堺市南区茶山台1-3-1,34.496292,135.515257
ヴィタメール 大丸心斎橋店,洋菓子（その他）、チョコレート,大阪府大阪市中央区心斎橋筋1-7-1 大丸心斎橋店 本館 B1F   このお店は「大阪市中央区心斎橋筋1-7-1」から移転しています。  ※移転前の情報は最新のものとは異なります。  移転前の店舗情報を見る,,https://www.wittamer.jp/shops/shinsaibashi_daimaru.html,,,大阪府大阪市中央区心斎橋筋1-7-1,34.67385,135.500963
モンロワール イオンモール茨木店,チョコレート,大阪府茨木市松ケ本町8-30 イオンモール茨木 1F ,営業時間  9:00～22:00  日曜営業  定休日  不定休(イオンモール茨木に準ずる)  営業時間・定休日は変更となる場合がございますので、ご来店前に店舗にご確認ください。,https://www.monloire.co.jp/,2015年4月24日,,大阪府茨木市松ケ本町8-30,34.811242,135.55881
鹿鳴館 松坂屋高槻店（ロクメイカン）,ケーキ、チョコレート,大阪府高槻市紺屋町2-1 松坂屋高槻店 B1F ,営業時間  10:00～20:00  定休日  不定休(松坂屋高槻店に準ずる)  営業時間・定休日は変更となる場合がございますので、ご来店前に店舗にご確認ください。,,,,大阪府高槻市紺屋町2-1,34.850541,135.618417
ゴンチャロフ 千里阪急（Goncharoff）,チョコレート,大阪府豊中市新千里東町1-5-1 千里阪急 ,営業時間  10:00～20:00  日曜営業  定休日  無休  営業時間・定休日は変更となる場合がございますので、ご来店前に店舗にご確認ください。,http://www.goncharoff.co.jp/,,,大阪府豊中市新千里東町1-5-1,34.809839,135.495975
PLAZA ルクア大阪店（プラザ）,チョコレート、スイーツ（その他）,大阪府大阪市北区梅田3-1-3 ルクア 大阪 6F ,営業時間  10:00～21:00  日曜営業  定休日  無休(1月1日のみ休み)  営業時間・定休日は変更となる場合がございますので、ご来店前に店舗にご確認ください。,,,,大阪府大阪市北区梅田3-1-3,34.702887,135.495324
モンロワール 天満橋店（mon loire）,チョコレート、洋菓子（その他）、バームクーヘン,大阪府大阪市中央区天満橋京町1-1 京阪シティーモール B1F ,営業時間  10:00～21:00  日曜営業  定休日  京阪シティーモールに準ずる  営業時間・定休日は変更となる場合がございますので、ご来店前に店舗にご確認ください。,https://www.citymall.jp/shopguide/detail/?id=21,,,大阪府大阪市中央区天満橋京町1-1,34.690115,135.516403
ゴディバ 阪急高槻（GODIVA）,チョコレート,大阪府高槻市白梅町4-1 高槻阪急 B1F ,営業時間  10:00〜20:00※高槻阪急に準ずる  日曜営業  定休日  高槻阪急に準ずる  営業時間・定休日は変更となる場合がございますので、ご来店前に店舗にご確認ください。,https://www.godiva.co.jp/,,https://www.facebook.com/GodivaJapan  https://twitter.com/godiva_jpn  https://www.instagram.com/godiva_japan/,大阪府高槻市白梅町4-1,34.853398,135.618343
ゴンチャロフ 松坂屋高槻店（マツザカヤタカツキテン）,チョコレート,大阪府高槻市紺屋町2-1 松坂屋高槻店 B1F ,営業時間  10:00～20:00  定休日  無休  営業時間・定休日は変更となる場合がございますので、ご来店前に店舗にご確認ください。,http://www.goncharoff.co.jp/,,,大阪府高槻市紺屋町2-1,34.850541,135.618417
ゴンチャロフ 高槻阪急（Goncharoff）,チョコレート,大阪府高槻市白梅町4-1 高槻阪急 B1F ,営業時間  10:00～20:00  日曜営業  定休日  高槻阪急に準ずる  営業時間・定休日は変更となる場合がございますので、ご来店前に店舗にご確認ください。,https://www.goncharoff.co.jp/,,https://twitter.com/goncharoff_1923  https://www.instagram.com/goncharoff_1923/,大阪府高槻市白梅町4-1,34.853398,135.618343
ゴディバ イオンモール鶴見緑地店（GODIVA）,チョコレート、カフェ、アイスクリーム,大阪府大阪市鶴見区鶴見4-17-1 イオンモール鶴見緑地 1F ,営業時間  10:00～21:00  日曜営業  定休日  不定休(イオンモール鶴見緑地に準ずる)  営業時間・定休日は変更となる場合がございますので、ご来店前に店舗にご確認ください。,https://www.godiva.co.jp/boutique/store/s56208/,2020年12月8日,,大阪府大阪市鶴見区鶴見4-17-1,34.704502,135.566332
Mary's 京阪百貨店守口店（メリー）,チョコレート,大阪府守口市河原町8-3 京阪百貨店守口店 B1F ,営業時間  10:00～20:00  日曜営業  定休日  無休、京阪百貨店に準ずる  営業時間・定休日は変更となる場合がございますので、ご来店前に店舗にご確認ください。,http://www.mary.co.jp/,,,大阪府守口市河原町8-3,34.736191,135.566922
メリーチョコレート 高島屋泉北店,チョコレート,大阪府堺市南区茶山台1-3-1 泉北タカシマヤ 1F ,営業時間  10:00～19:00  日曜営業  定休日  泉北タカシマヤに準ずる  営業時間・定休日は変更となる場合がございますので、ご来店前に店舗にご確認ください。,,,,大阪府堺市南区茶山台1-3-1,34.496292,135.515257
モンロワール 千里阪急店,チョコレート,大阪府豊中市新千里東町1-5-1 千里阪急 B1F ,営業時間  10:00～20:00  定休日  無休  営業時間・定休日は変更となる場合がございますので、ご来店前に店舗にご確認ください。,https://www.monloire.co.jp/,,,大阪府豊中市新千里東町1-5-1,34.809839,135.495975
メリーチョコレート 松坂屋高槻店,チョコレート,大阪府高槻市紺町2-1 松坂屋高槻店 B1F ,営業時間  10:00～20:00  定休日  年中無休(1月1日のみ休み)  営業時間・定休日は変更となる場合がございますので、ご来店前に店舗にご確認ください。,,,,大阪府高槻市紺町2-1,34.850541,135.618417
ゴディバ 近鉄上本町店（GODIVA）,チョコレート,大阪府大阪市天王寺区上本町6-1-55 近鉄百貨店上本町店 ,営業時間  10:00～20:00  日曜営業  定休日  百貨店の基準に準ずる.  営業時間・定休日は変更となる場合がございますので、ご来店前に店舗にご確認ください。,https://www.godiva.co.jp,,,大阪府大阪市天王寺区上本町6-1-55,34.665579,135.520925
ゴンチャロフ 京阪百貨店枚方店（Goncharoff）,チョコレート,大阪府枚方市岡東町19-19 京阪百貨店ひらかた店 1F ,営業時間  10:00～20:00  定休日  不定休(京阪百貨店ひらかた店に準ずる)  営業時間・定休日は変更となる場合がございますので、ご来店前に店舗にご確認ください。,http://www.goncharoff.co.jp/,2015年9月11日,,大阪府枚方市岡東町19-19,34.815701,135.648734
メリーチョコレート 京阪百貨店すみのどう店,チョコレート,大阪府大東市赤井1-4-1,,,,,大阪府大東市赤井1-4-1,34.709104,135.620051
モンロワール 高槻阪急店,チョコレート,大阪府高槻市白梅町4-1 西武高槻店 B1F ,営業時間  10:00～20:00  日曜営業  営業時間・定休日は変更となる場合がございますので、ご来店前に店舗にご確認ください。,,2019年9月25日,,大阪府高槻市白梅町4-1,34.853398,135.618343
メリーチョコレート 大丸心斎橋（Mary's）,チョコレート,大阪府大阪市中央区心斎橋筋1-7-1 大丸心斎橋店 B2F ,営業時間  10：00～20：30  日曜営業  営業時間・定休日は変更となる場合がございますので、ご来店前に店舗にご確認ください。,http://www.mary.co.jp/,,,大阪府大阪市中央区心斎橋筋1-7-1,34.67385,135.500963
Arriere Plan（アリエール プラン）,ケーキ、チョコレート、洋菓子（その他）,大阪府箕面市小野原東5-8-51,営業時間  10:00～19:00  日曜営業  定休日  不定休  営業時間・定休日は変更となる場合がございますので、ご来店前に店舗にご確認ください。,,2021年10月20日,https://www.instagram.com/kanae_t0216,大阪府箕面市小野原東5-8-51,34.830095,135.519101
銀座ブールミッシュ 池田店,ケーキ、チョコレート、マカロン,大阪府池田市菅原町6-11 エクセレント前川 1F ,営業時間  10:00～20:00  営業時間・定休日は変更となる場合がございますので、ご来店前に店舗にご確認ください。,https://www.boulmich.co.jp/,2021年1月30日,https://www.facebook.com/ブールミッシュ-574014156279529/  https://twitter.com/boulmich2013/status/1356828378825850880  https://www.instagram.com/boulmich_official/,大阪府池田市菅原町6-11,34.822062,135.426621
一番館 阪神百貨店,チョコレート,大阪府大阪市北区梅田1-13-13 阪神百貨店梅田本店 B1F ,営業時間  10:00～20:30  定休日  阪神百貨店に準ずる  営業時間・定休日は変更となる場合がございますので、ご来店前に店舗にご確認ください。,http://www.jin.ne.jp/kobe/itibannkann/index.html,,,大阪府大阪市北区梅田1-13-13,34.701132,135.499039
ゴンチャロフ 大丸大阪梅田店（Goncharoff）,チョコレート,大阪府大阪市北区梅田3-1-1 JR大阪駅 田店 B1F ,営業時間  [月～木・日] 10:00～20:30 [金・土] 10:00～21:00  日曜営業  定休日  無休(1月1日のみ休み)  営業時間・定休日は変更となる場合がございますので、ご来店前に店舗にご確認ください。,http://www.goncharoff.co.jp/,,,大阪府大阪市北区梅田3-1-1,34.703075,135.495271
モンロワール ロサヴィア茨木店（Monloire）,チョコレート,大阪府茨木市永代町1-5 ロサヴィアいばらき ,,,2021年9月,,大阪府茨木市永代町1-5,34.817089,135.576068
トム ブラウン チョコレート 阪急うめだ本店（THOM BROWNE CHOCOLATE）,チョコレート,大阪府大阪市北区角田町8-7 阪急うめだ本店 3F ,営業時間  10:00～20:00(阪急うめだ本店に準じる)  日曜営業  営業時間・定休日は変更となる場合がございますので、ご来店前に店舗にご確認ください。,https://www.thombrowne.com/us/stores/thom-browne-osaka-hankyu-chocolate,,,大阪府大阪市北区角田町8-7,34.70305,135.498352
モンロワール 住道,チョコレート,大阪府大東市住道2丁目3-1 アルビ住道 1F ,営業時間  10:00～21:00  定休日  なし（元旦のみ）  営業時間・定休日は変更となる場合がございますので、ご来店前に店舗にご確認ください。,https://www.monloire.co.jp/,,,大阪府大東市住道2丁目3-1,34.706218,135.619311
CHOCO FOREST（チョコ フォレスト）,チョコレート,大阪府寝屋川市香里南之町9-14,,,2022年1月26日,https://www.facebook.com/chocoforest1/  https://www.instagram.com/\choco_forest_osaka,大阪府寝屋川市香里南之町9-14,34.782113,135.630449
LA PECAN 御堂筋線なんば駅店（ラ ピーカン）,チョコレート,大阪府大阪市中央区難波1-9-7 OsakaMetro御堂筋線なんば駅北中階 改札内 ,営業時間  13:00～21:00  定休日  無休  営業時間・定休日は変更となる場合がございますので、ご来店前に店舗にご確認ください。,,,,大阪府大阪市中央区難波1-9-7,34.667317,135.500732
M Dojima,チョコレート、ケーキ,大阪府大阪市北区堂島浜1丁目3-23,,,2021年10月1日,https://www.instagram.com/m_dojima/?hl=ja,大阪府大阪市北区堂島浜1丁目3-23,34.695715,135.49771
モンロワール 京阪モール京橋店（Monloire）,チョコレート,大阪府大阪市都島区東野田町2-1-38 京阪モール B1F ,営業時間  [月～金]10:30～20:00[土・日・祝]11:00～19:00  日曜営業  営業時間・定休日は変更となる場合がございますので、ご来店前に店舗にご確認ください。,https://www.monloire.co.jp/,2021年9月,,大阪府大阪市都島区東野田町2-1-38,34.697678,135.532913
ホラー・ショップ,チョコレート,大阪府大阪市此花区桜島2-1-33 ユニバーサルスタジオジャパン ,営業時間  不定  定休日  不定休(ユニバーサルスタジオジャパンに準ずる)  営業時間・定休日は変更となる場合がございますので、ご来店前に店舗にご確認ください。,,2014年9月,,大阪府大阪市此花区桜島2-1-33,34.667266,135.433643
お菓子工房リギー わくわくシティーオークワ尾崎店内,ケーキ、アイスクリーム、チョコレート,大阪府阪南市下出167-1 わくわくシティーオークワ店　１Ｆ ,営業時間  10：00～19:30  日曜営業  定休日  無休,,,,大阪府阪南市下出167-1,34.362068,135.244586
手作りケーキ&お菓子 m's factory,ケーキ、マカロン、チョコレート,大阪府高石市綾園2-16-5,営業時間  焼き菓子販売[水]11:00～17:00キャラクターケーキ予約販売[火・水・木・金・土]  定休日  月曜日、日曜日  営業時間・定休日は変更となる場合がございますので、ご来店前に店舗にご確認ください。,,,https://www.instagram.com/factory_ms,大阪府高石市綾園2-16-5,34.519613,135.435216
ゴディバ 大丸梅田店（GODIVA）,チョコレート,大阪府大阪市北区梅田3-1-1 大丸梅田店 B1F ,,,,,大阪府大阪市北区梅田3-1-1,34.703075,135.495271
ゴンチャロフ 近鉄百貨店上本町店（Goncharoff）,チョコレート,大阪府大阪市天王寺区上本町6-1-55 近鉄百貨店上本町店 B2F ,営業時間  10:00～20:00  定休日  不定休(近鉄百貨店上本町店に準ずる)  営業時間・定休日は変更となる場合がございますので、ご来店前に店舗にご確認ください。,http://www.goncharoff.co.jp/,,,大阪府大阪市天王寺区上本町6-1-55,34.665579,135.520925
Mary's 高槻阪急（メリー）,洋菓子（その他）、チョコレート,大阪府高槻市白梅町4-1 高槻阪急 B1F ,営業時間  10:00～20:00  日曜営業  定休日  高槻阪急に準ずる  営業時間・定休日は変更となる場合がございますので、ご来店前に店舗にご確認ください。,https://www.mary.co.jp/,,https://www.facebook.com/marychocolate.fan  https://twitter.com/marychocolate_c  https://www.instagram.com/marychocolate.jp/,大阪府高槻市白梅町4-1,34.853398,135.618343
まるしげ 緑地公園駅ビル店,スイーツ（その他）、チョコレート,大阪府豊中市東寺内町2-4-1 緑地駅ビル B1F ,営業時間  [月～金] 9:00～21:00 [土・日・祝] 9:00～20:00  定休日  年中無休  営業時間・定休日は変更となる場合がございますので、ご来店前に店舗にご確認ください。,,,,大阪府豊中市東寺内町2-4-1,34.77643,135.498532
ふらんすや イオンモール大日銘店,チョコレート,大阪府守口市大日東町1-18 イオンモール大日 1F ,営業時間  9:00～23:00  定休日  不定休(イイオン大日ジャスコ銘店に準ずる)  営業時間・定休日は変更となる場合がございますので、ご来店前に店舗にご確認ください。,,,,大阪府守口市大日東町1-18,34.749561,135.580207
スイーツ ファクトリー スリーズ ルクアイーレ店,ケーキ、チョコレート,大阪府大阪市北区梅田3-1-3 ルクア B2F ,営業時間  10:00～20:30(LO 20:00)  日曜営業  定休日  JR大阪三越伊勢丹に準じる  営業時間・定休日は変更となる場合がございますので、ご来店前に店舗にご確認ください。,http://www.cerise-sweets.com/,,,大阪府大阪市北区梅田3-1-3,34.702887,135.495324
チョコレート・ハウス・モンロワール くずはモール店（Chocolate House Mon Loire）,チョコレート,大阪府枚方市楠葉花園町15-1 くずはモール本館 1F ,営業時間  10:00～21:00  営業時間・定休日は変更となる場合がございますので、ご来店前に店舗にご確認ください。,http://kuzuha-mall.com/shopguide/detail.php?id=117,,,大阪府枚方市楠葉花園町15-1,34.862232,135.677107
ゴンチャロフ 高島屋堺店（Goncharoff）,チョコレート,大阪府堺市堺区三国ケ丘御幸通59 堺タカシマヤ 2F ,営業時間  10:00～19:00  日曜営業  定休日  不定休(堺タカシマヤに準ずる)  営業時間・定休日は変更となる場合がございますので、ご来店前に店舗にご確認ください。,http://www.goncharoff.co.jp/,,,大阪府堺市堺区三国ケ丘御幸通59,34.576506,135.484763
メリーチョコレート 京阪百貨店くずはモール店,チョコレート,大阪府枚方市楠葉花園町15-1 京阪百貨店くずはモール店 1F ,営業時間  10:00～20:00  定休日  不定休(京阪百貨店くずはモール店に準ずる)  営業時間・定休日は変更となる場合がございますので、ご来店前に店舗にご確認ください。,,,,大阪府枚方市楠葉花園町15-1,34.862232,135.677107
モンロワール 京阪枚方店（CHOCOLATE HOUSE Mon Loire）,チョコレート、洋菓子（その他）,大阪府枚方市岡東町19-19 京阪百貨店ひらかた店 1F ,営業時間  10:00～20:00  日曜営業  定休日  京阪百貨店ひらかた店に準ずる  営業時間・定休日は変更となる場合がございますので、ご来店前に店舗にご確認ください。,https://www.monloire.co.jp/,2019年11月7日,https://www.facebook.com/monloire/  https://twitter.com/monloire_pr,大阪府枚方市岡東町19-19,34.815701,135.648734
ココロトカカオ（kokoro to cacao）,チョコレート、ケーキ、洋菓子（その他）,大阪府堺市西区浜寺諏訪ノ森町東2-124-17  このお店は「堺市西区菱木2-2183-5」から移転しています。  ※移転前の情報は最新のものとは異なります。  移転前の店舗情報を見る,営業時間  ［月・火・水］10:00～22:00  定休日  木曜・金曜・土曜・日曜  営業時間・定休日は変更となる場合がございますので、ご来店前に店舗にご確認ください。,,,https://www.instagram.com/koko_caca_,大阪府堺市西区浜寺諏訪ノ森町東2-124-17,34.548752,135.4498
神戸フランツ 北新地店,チョコレート,大阪府大阪市北区曽根崎新地1-2-24 ニューウメダビル 1F ,営業時間  18:00～23:00  定休日  土曜日・日曜日・祝日  営業時間・定休日は変更となる場合がございますので、ご来店前に店舗にご確認ください。,,,,大阪府大阪市北区曽根崎新地1-2-24,34.700219,135.501036
メリーチョコレート 堺高島屋店,チョコレート,大阪府堺市堺区三国ヶ丘御幸通59 2F ,営業時間  10:00～19:00  日曜営業  定休日  不定休(堺タカシマヤに準ずる)  営業時間・定休日は変更となる場合がございますので、ご来店前に店舗にご確認ください。,https://www.mary.co.jp/mary/,,,大阪府堺市堺区三国ヶ丘御幸通59,34.576506,135.484763
JOUJOU（【旧店名】樹々）,ケーキ、チョコレート、マカロン,大阪府大阪市生野区勝山北4丁目1-14,営業時間  ［金・日］11：00～18：00  日曜営業  定休日  月・火・水・木・土,,,,大阪府大阪市生野区勝山北4丁目1-14,34.657653,135.53557
ハーブ＆チョコレート COLOR'S（カラーズ）,チョコレート,大阪府堺市南区深阪南100 ふかすみさビル　2F ,営業時間  10:30～19:00  定休日  火曜日  営業時間・定休日は変更となる場合がございますので、ご来店前に店舗にご確認ください。,,2009年,,大阪府堺市南区深阪南100,34.505678,135.507008
ソコラ アメ村店（SÔ CÔ La）,スイーツ（その他）、ソフトクリーム、チョコレート,大阪府大阪市中央区西心斎橋2-10-27 森ビル 1F ,営業時間  11:00～20:00 営業時間・定休日は変更となる場合がございますので、ご来店前に店舗にご確認ください。,,2020年6月19日,,大阪府大阪市中央区西心斎橋2-10-27,34.671781,135.498324
